{"_id":{"$oid":"5d9dec992ebe2da7d4dacf31"},"VolcanoID":210030,"V_Name":"Olot Volcanic Field","Country":"Spain","Region":"Mediterranean and W Asia","Subregion":"Western Europe","latitude":42.17,"longitude":2.53,"PEI":5,"H_active":0,"VEI_Holoce":"No confirmed eruptions","hazard":"NULL","class":"U-NHHR","risk":"NULL","field_14":null,"field_15":null}
{"_id":{"$oid":"5d9dec992ebe2da7d4dacf32"},"VolcanoID":211070,"V_Name":"Campi Flegrei Mar Sicilia","Country":"Italy","Region":"Mediterranean and W Asia","Subregion":"Italy","latitude":37.1,"longitude":12.7,"PEI":6,"H_active":1,"VEI_Holoce":"3","hazard":"1","class":"NULL","risk":"2","field_14":null,"field_15":null}
{"_id":{"$oid":"5d9dec992ebe2da7d4dacf33"},"VolcanoID":211010,"V_Name":"Campi Flegrei","Country":"Italy","Region":"Mediterranean and W Asia","Subregion":"Italy","latitude":40.827,"longitude":14.139,"PEI":7,"H_active":1,"VEI_Holoce":"5","hazard":"3","class":"NULL","risk":"3","field_14":null,"field_15":null}
{"_id":{"$oid":"5d9dec992ebe2da7d4dacf34"},"VolcanoID":211020,"V_Name":"Vesuvius","Country":"Italy","Region":"Mediterranean and W Asia","Subregion":"Italy","latitude":40.821,"longitude":14.426,"PEI":7,"H_active":1,"VEI_Holoce":"5","hazard":"3","class":"NULL","risk":"3","field_14":null,"field_15":null}
{"_id":{"$oid":"5d9dec992ebe2da7d4dacf35"},"VolcanoID":211040,"V_Name":"Stromboli","Country":"Italy","Region":"Mediterranean and W Asia","Subregion":"Italy","latitude":38.789,"longitude":15.213,"PEI":3,"H_active":1,"VEI_Holoce":"3","hazard":"1","class":"NULL","risk":"1","field_14":null,"field_15":null}
{"_id":{"$oid":"5d9dec992ebe2da7d4dacf36"},"VolcanoID":212020,"V_Name":"Methana","Country":"Greece","Region":"Mediterranean and W Asia","Subregion":"Greece","latitude":37.615,"longitude":23.336,"PEI":4,"H_active":0,"VEI_Holoce":"3","hazard":"NULL","class":"U-HR","risk":"NULL","field_14":null,"field_15":null}
{"_id":{"$oid":"5d9dec992ebe2da7d4dacf37"},"VolcanoID":211071,"V_Name":"Pantelleria","Country":"Italy","Region":"Mediterranean and W Asia","Subregion":"Italy","latitude":36.77,"longitude":12.02,"PEI":4,"H_active":1,"VEI_Holoce":"1","hazard":"NULL","class":"U-HHR","risk":"NULL","field_14":null,"field_15":null}
{"_id":{"$oid":"5d9dec992ebe2da7d4dacf38"},"VolcanoID":212040,"V_Name":"Santorini","Country":"Greece","Region":"Mediterranean and W Asia","Subregion":"Greece","latitude":36.404,"longitude":25.396,"PEI":4,"H_active":1,"VEI_Holoce":"7","hazard":"3","class":"NULL","risk":"3","field_14":null,"field_15":null}
{"_id":{"$oid":"5d9dec992ebe2da7d4dacf39"},"VolcanoID":210010,"V_Name":"West Eifel Volcanic Field","Country":"Germany","Region":"Mediterranean and W Asia","Subregion":"Western Europe","latitude":50.17,"longitude":6.85,"PEI":6,"H_active":0,"VEI_Holoce":"Unknown VEI","hazard":"NULL","class":"U-HR","risk":"NULL","field_14":null,"field_15":null}
{"_id":{"$oid":"5d9dec992ebe2da7d4dacf3a"},"VolcanoID":212050,"V_Name":"Nisyros","Country":"Greece","Region":"Mediterranean and W Asia","Subregion":"Greece","latitude":36.586,"longitude":27.16,"PEI":2,"H_active":1,"VEI_Holoce":"2","hazard":"2","class":"NULL","risk":"1","field_14":null,"field_15":null}
{"_id":{"$oid":"5d9dec992ebe2da7d4dacf3b"},"VolcanoID":213000,"V_Name":"Kula","Country":"Turkey","Region":"Mediterranean and W Asia","Subregion":"Turkey","latitude":38.58,"longitude":28.52,"PEI":5,"H_active":0,"VEI_Holoce":"No confirmed eruptions","hazard":"NULL","class":"U-NHHR","risk":"NULL","field_14":null,"field_15":null}
{"_id":{"$oid":"5d9dec992ebe2da7d4dacf3c"},"VolcanoID":212030,"V_Name":"M?los","Country":"Greece","Region":"Mediterranean and W Asia","Subregion":"Greece","latitude":36.699,"longitude":24.439,"PEI":3,"H_active":0,"VEI_Holoce":"1","hazard":"NULL","class":"U-HR","risk":"NULL","field_14":null,"field_15":null}
{"_id":{"$oid":"5d9dec992ebe2da7d4dacf3d"},"VolcanoID":211031,"V_Name":"Palinuro","Country":"Italy","Region":"Mediterranean and W Asia","Subregion":"Italy","latitude":39.48,"longitude":14.83,"PEI":2,"H_active":0,"VEI_Holoce":"Unknown VEI","hazard":"NULL","class":"U-HR","risk":"NULL","field_14":null,"field_15":null}
{"_id":{"$oid":"5d9dec992ebe2da7d4dacf3e"},"VolcanoID":211050,"V_Name":"Vulcano","Country":"Italy","Region":"Mediterranean and W Asia","Subregion":"Italy","latitude":38.404,"longitude":14.962,"PEI":4,"H_active":1,"VEI_Holoce":"4","hazard":"3","class":"NULL","risk":"3","field_14":null,"field_15":null}
{"_id":{"$oid":"5d9dec992ebe2da7d4dacf3f"},"VolcanoID":213001,"V_Name":"Karapinar Field","Country":"Turkey","Region":"Mediterranean and W Asia","Subregion":"Turkey","latitude":37.67,"longitude":33.65,"PEI":5,"H_active":0,"VEI_Holoce":"No confirmed eruptions","hazard":"NULL","class":"U-NHHR","risk":"NULL","field_14":null,"field_15":null}
{"_id":{"$oid":"5d9dec992ebe2da7d4dacf40"},"VolcanoID":213002,"V_Name":"Hasan Dagi","Country":"Turkey","Region":"Mediterranean and W Asia","Subregion":"Turkey","latitude":38.13,"longitude":34.17,"PEI":4,"H_active":0,"VEI_Holoce":"No confirmed eruptions","hazard":"NULL","class":"U-NHHR","risk":"NULL","field_14":null,"field_15":null}
{"_id":{"$oid":"5d9dec992ebe2da7d4dacf41"},"VolcanoID":213003,"V_Name":"G?ll? Dag","Country":"Turkey","Region":"Mediterranean and W Asia","Subregion":"Turkey","latitude":38.25,"longitude":34.57,"PEI":4,"H_active":0,"VEI_Holoce":"No confirmed eruptions","hazard":"NULL","class":"U-NHHR","risk":"NULL","field_14":null,"field_15":null}
{"_id":{"$oid":"5d9dec992ebe2da7d4dacf42"},"VolcanoID":213004,"V_Name":"Acig?l-Nevsehir","Country":"Turkey","Region":"Mediterranean and W Asia","Subregion":"Turkey","latitude":38.57,"longitude":34.52,"PEI":6,"H_active":0,"VEI_Holoce":"Unknown VEI","hazard":"NULL","class":"U-HR","risk":"NULL","field_14":null,"field_15":null}
{"_id":{"$oid":"5d9dec992ebe2da7d4dacf43"},"VolcanoID":213010,"V_Name":"Erciyes Dagi","Country":"Turkey","Region":"Mediterranean and W Asia","Subregion":"Turkey","latitude":38.52,"longitude":35.48,"PEI":5,"H_active":0,"VEI_Holoce":"Unknown VEI","hazard":"NULL","class":"U-HR","risk":"NULL","field_14":null,"field_15":null}
{"_id":{"$oid":"5d9dec992ebe2da7d4dacf44"},"VolcanoID":212051,"V_Name":"Yali","Country":"Greece","Region":"Mediterranean and W Asia","Subregion":"Greece","latitude":36.671,"longitude":27.14,"PEI":2,"H_active":0,"VEI_Holoce":"No confirmed eruptions","hazard":"NULL","class":"U-NHHR","risk":"NULL","field_14":null,"field_15":null}
{"_id":{"$oid":"5d9dec992ebe2da7d4dacf45"},"VolcanoID":213022,"V_Name":"Girekol Tepe","Country":"Turkey","Region":"Mediterranean and W Asia","Subregion":"Turkey","latitude":39.192,"longitude":43.217,"PEI":4,"H_active":0,"VEI_Holoce":"No confirmed eruptions","hazard":"NULL","class":"U-NHHR","risk":"NULL","field_14":null,"field_15":null}
{"_id":{"$oid":"5d9dec992ebe2da7d4dacf46"},"VolcanoID":213021,"V_Name":"S?phan Dagi","Country":"Turkey","Region":"Mediterranean and W Asia","Subregion":"Turkey","latitude":38.92,"longitude":42.82,"PEI":4,"H_active":0,"VEI_Holoce":"Unknown VEI","hazard":"NULL","class":"U-HR","risk":"NULL","field_14":null,"field_15":null}
{"_id":{"$oid":"5d9dec992ebe2da7d4dacf47"},"VolcanoID":213011,"V_Name":"Karaca Dag","Country":"Turkey","Region":"Mediterranean and W Asia","Subregion":"Turkey","latitude":37.67,"longitude":39.83,"PEI":4,"H_active":0,"VEI_Holoce":"No confirmed eruptions","hazard":"NULL","class":"U-NHHR","risk":"NULL","field_14":null,"field_15":null}
{"_id":{"$oid":"5d9dec992ebe2da7d4dacf48"},"VolcanoID":213020,"V_Name":"Nemrut Dagi","Country":"Turkey","Region":"Mediterranean and W Asia","Subregion":"Turkey","latitude":38.65,"longitude":42.23,"PEI":4,"H_active":1,"VEI_Holoce":"Unknown VEI","hazard":"NULL","class":"U-HHR","risk":"NULL","field_14":null,"field_15":null}
{"_id":{"$oid":"5d9dec992ebe2da7d4dacf49"},"VolcanoID":211060,"V_Name":"Etna","Country":"Italy","Region":"Mediterranean and W Asia","Subregion":"Italy","latitude":37.734,"longitude":15.004,"PEI":5,"H_active":1,"VEI_Holoce":"5","hazard":"2","class":"NULL","risk":"2","field_14":null,"field_15":null}
{"_id":{"$oid":"5d9dec992ebe2da7d4dacf4a"},"VolcanoID":210020,"V_Name":"Cha?ne des Puys","Country":"France","Region":"Mediterranean and W Asia","Subregion":"Western Europe","latitude":45.775,"longitude":2.97,"PEI":7,"H_active":0,"VEI_Holoce":"Unknown VEI","hazard":"NULL","class":"U-HR","risk":"NULL","field_14":null,"field_15":null}
{"_id":{"$oid":"5d9dec992ebe2da7d4dacf4b"},"VolcanoID":211001,"V_Name":"Larderello","Country":"Italy","Region":"Mediterranean and W Asia","Subregion":"Italy","latitude":43.25,"longitude":10.87,"PEI":4,"H_active":0,"VEI_Holoce":"3","hazard":"NULL","class":"U-HR","risk":"NULL","field_14":null,"field_15":null}
{"_id":{"$oid":"5d9dec992ebe2da7d4dacf4c"},"VolcanoID":211004,"V_Name":"Alban Hills","Country":"Italy","Region":"Mediterranean and W Asia","Subregion":"Italy","latitude":41.73,"longitude":12.7,"PEI":7,"H_active":0,"VEI_Holoce":"No confirmed eruptions","hazard":"NULL","class":"U-NHHR","risk":"NULL","field_14":null,"field_15":null}
{"_id":{"$oid":"5d9dec992ebe2da7d4dacf4d"},"VolcanoID":211030,"V_Name":"Ischia","Country":"Italy","Region":"Mediterranean and W Asia","Subregion":"Italy","latitude":40.73,"longitude":13.897,"PEI":5,"H_active":0,"VEI_Holoce":"3","hazard":"NULL","class":"U-HR","risk":"NULL","field_14":null,"field_15":null}
{"_id":{"$oid":"5d9dec992ebe2da7d4dacf4e"},"VolcanoID":211041,"V_Name":"Panarea","Country":"Italy","Region":"Mediterranean and W Asia","Subregion":"Italy","latitude":38.63,"longitude":15.07,"PEI":3,"H_active":0,"VEI_Holoce":"No confirmed eruptions","hazard":"NULL","class":"U-NHHR","risk":"NULL","field_14":null,"field_15":null}
{"_id":{"$oid":"5d9dec992ebe2da7d4dacf4f"},"VolcanoID":211042,"V_Name":"Lipari","Country":"Italy","Region":"Mediterranean and W Asia","Subregion":"Italy","latitude":38.48,"longitude":14.95,"PEI":5,"H_active":0,"VEI_Holoce":"Unknown VEI","hazard":"NULL","class":"U-HR","risk":"NULL","field_14":null,"field_15":null}
{"_id":{"$oid":"5d9dec992ebe2da7d4dacf50"},"VolcanoID":211003,"V_Name":"Vulsini","Country":"Italy","Region":"Mediterranean and W Asia","Subregion":"Italy","latitude":42.6,"longitude":11.93,"PEI":5,"H_active":0,"VEI_Holoce":"Unknown VEI","hazard":"NULL","class":"U-HR","risk":"NULL","field_14":null,"field_15":null}
{"_id":{"$oid":"5d9dec992ebe2da7d4dacf51"},"VolcanoID":210040,"V_Name":"Calatrava Volcanic Field","Country":"Spain","Region":"Mediterranean and W Asia","Subregion":"Western Europe","latitude":38.87,"longitude":-4.02,"PEI":6,"H_active":0,"VEI_Holoce":"Unknown VEI","hazard":"NULL","class":"U-HR","risk":"NULL","field_14":null,"field_15":null}
{"_id":{"$oid":"5d9dec992ebe2da7d4dacf52"},"VolcanoID":213040,"V_Name":"Ararat","Country":"Turkey","Region":"Mediterranean and W Asia","Subregion":"Turkey","latitude":39.7,"longitude":44.3,"PEI":4,"H_active":1,"VEI_Holoce":"3","hazard":"NULL","class":"U-HHR","risk":"NULL","field_14":null,"field_15":null}
{"_id":{"$oid":"5d9dec992ebe2da7d4dacf53"},"VolcanoID":213030,"V_Name":"Tend?rek Dagi","Country":"Turkey","Region":"Mediterranean and W Asia","Subregion":"Turkey","latitude":39.37,"longitude":43.87,"PEI":4,"H_active":1,"VEI_Holoce":"Unknown VEI","hazard":"NULL","class":"U-HHR","risk":"NULL","field_14":null,"field_15":null}
{"_id":{"$oid":"5d9dec992ebe2da7d4dacf54"},"VolcanoID":213050,"V_Name":"Kars Plateau","Country":"Turkey","Region":"Mediterranean and W Asia","Subregion":"Turkey","latitude":40.75,"longitude":43.25,"PEI":7,"H_active":0,"VEI_Holoce":"No confirmed eruptions","hazard":"NULL","class":"U-NHHR","risk":"NULL","field_14":null,"field_15":null}
{"_id":{"$oid":"5d9dec992ebe2da7d4dacf55"},"VolcanoID":214010,"V_Name":"Elbrus","Country":"Russia","Region":"Mediterranean and W Asia","Subregion":"Western Asia","latitude":43.33,"longitude":42.45,"PEI":3,"H_active":0,"VEI_Holoce":"Unknown VEI","hazard":"NULL","class":"U-HR","risk":"NULL","field_14":null,"field_15":null}
{"_id":{"$oid":"5d9dec992ebe2da7d4dacf56"},"VolcanoID":214020,"V_Name":"Kasbek","Country":"Georgia","Region":"Mediterranean and W Asia","Subregion":"Western Asia","latitude":42.7,"longitude":44.5,"PEI":3,"H_active":0,"VEI_Holoce":"Unknown VEI","hazard":"NULL","class":"U-HR","risk":"NULL","field_14":null,"field_15":null}
{"_id":{"$oid":"5d9dec992ebe2da7d4dacf57"},"VolcanoID":214040,"V_Name":"Unnamed","Country":"Georgia","Region":"Mediterranean and W Asia","Subregion":"Western Asia","latitude":42.45,"longitude":44.25,"PEI":3,"H_active":0,"VEI_Holoce":"No confirmed eruptions","hazard":"NULL","class":"U-NHHR","risk":"NULL","field_14":null,"field_15":null}
{"_id":{"$oid":"5d9dec992ebe2da7d4dacf58"},"VolcanoID":214050,"V_Name":"Unnamed","Country":"Georgia","Region":"Mediterranean and W Asia","Subregion":"Western Asia","latitude":41.55,"longitude":43.6,"PEI":4,"H_active":0,"VEI_Holoce":"No confirmed eruptions","hazard":"NULL","class":"U-NHHR","risk":"NULL","field_14":null,"field_15":null}
{"_id":{"$oid":"5d9dec992ebe2da7d4dacf59"},"VolcanoID":214060,"V_Name":"Aragats","Country":"Armenia","Region":"Mediterranean and W Asia","Subregion":"Western Asia","latitude":40.53,"longitude":44.2,"PEI":4,"H_active":0,"VEI_Holoce":"No confirmed eruptions","hazard":"NULL","class":"U-NHHR","risk":"NULL","field_14":null,"field_15":null}
{"_id":{"$oid":"5d9dec992ebe2da7d4dacf5a"},"VolcanoID":214080,"V_Name":"Dar-Alages","Country":"Armenia","Region":"Mediterranean and W Asia","Subregion":"Western Asia","latitude":39.7,"longitude":45.542,"PEI":5,"H_active":0,"VEI_Holoce":"Unknown VEI","hazard":"NULL","class":"U-HR","risk":"NULL","field_14":null,"field_15":null}
{"_id":{"$oid":"5d9dec992ebe2da7d4dacf5b"},"VolcanoID":214090,"V_Name":"Porak","Country":"Armenia-Azerbaijan","Region":"Mediterranean and W Asia","Subregion":"Western Asia","latitude":40.02,"longitude":45.78,"PEI":3,"H_active":0,"VEI_Holoce":"Unknown VEI","hazard":"NULL","class":"U-HR","risk":"NULL","field_14":null,"field_15":null}
{"_id":{"$oid":"5d9dec992ebe2da7d4dacf5c"},"VolcanoID":214100,"V_Name":"Tskhouk-Karckar","Country":"Armenia-Azerbaijan","Region":"Mediterranean and W Asia","Subregion":"Western Asia","latitude":39.73,"longitude":46.02,"PEI":3,"H_active":0,"VEI_Holoce":"Unknown VEI","hazard":"NULL","class":"U-HR","risk":"NULL","field_14":null,"field_15":null}
{"_id":{"$oid":"5d9dec992ebe2da7d4dacf5d"},"VolcanoID":214030,"V_Name":"Kabargin Oth Group","Country":"Georgia","Region":"Mediterranean and W Asia","Subregion":"Western Asia","latitude":42.55,"longitude":44,"PEI":3,"H_active":0,"VEI_Holoce":"No confirmed eruptions","hazard":"NULL","class":"U-NHHR","risk":"NULL","field_14":null,"field_15":null}
{"_id":{"$oid":"5d9dec992ebe2da7d4dacf5e"},"VolcanoID":214070,"V_Name":"Ghegam Ridge","Country":"Armenia","Region":"Mediterranean and W Asia","Subregion":"Western Asia","latitude":40.275,"longitude":44.75,"PEI":7,"H_active":0,"VEI_Holoce":"0","hazard":"NULL","class":"U-HR","risk":"NULL","field_14":null,"field_15":null}
{"_id":{"$oid":"5d9dec992ebe2da7d4dacf5f"},"VolcanoID":221010,"V_Name":"Tair, Jebel at","Country":"Yemen","Region":"Africa and Red Sea","Subregion":"Africa (northeastern) and Red Sea","latitude":15.55,"longitude":41.83,"PEI":2,"H_active":1,"VEI_Holoce":"3","hazard":"1","class":"NULL","risk":"1","field_14":null,"field_15":null}
{"_id":{"$oid":"5d9dec992ebe2da7d4dacf60"},"VolcanoID":221021,"V_Name":"Zukur","Country":"Yemen","Region":"Africa and Red Sea","Subregion":"Africa (northeastern) and Red Sea","latitude":14.02,"longitude":42.75,"PEI":3,"H_active":0,"VEI_Holoce":"No confirmed eruptions","hazard":"NULL","class":"U-NHHR","risk":"NULL","field_14":null,"field_15":null}
{"_id":{"$oid":"5d9dec992ebe2da7d4dacf61"},"VolcanoID":221041,"V_Name":"Dallol","Country":"Ethiopia","Region":"Africa and Red Sea","Subregion":"Africa (northeastern) and Red Sea","latitude":14.242,"longitude":40.3,"PEI":2,"H_active":1,"VEI_Holoce":"1","hazard":"NULL","class":"U-HHR","risk":"NULL","field_14":null,"field_15":null}
{"_id":{"$oid":"5d9dec992ebe2da7d4dacf62"},"VolcanoID":221022,"V_Name":"Hanish","Country":"Yemen","Region":"Africa and Red Sea","Subregion":"Africa (northeastern) and Red Sea","latitude":13.72,"longitude":42.73,"PEI":2,"H_active":0,"VEI_Holoce":"No confirmed eruptions","hazard":"NULL","class":"U-NHHR","risk":"NULL","field_14":null,"field_15":null}
{"_id":{"$oid":"5d9dec992ebe2da7d4dacf63"},"VolcanoID":221040,"V_Name":"Alid","Country":"Eritrea","Region":"Africa and Red Sea","Subregion":"Africa (northeastern) and Red Sea","latitude":14.88,"longitude":39.92,"PEI":3,"H_active":0,"VEI_Holoce":"No confirmed eruptions","hazard":"NULL","class":"U-NHHR","risk":"NULL","field_14":null,"field_15":null}
{"_id":{"$oid":"5d9dec992ebe2da7d4dacf64"},"VolcanoID":221030,"V_Name":"Jalua","Country":"Eritrea","Region":"Africa and Red Sea","Subregion":"Africa (northeastern) and Red Sea","latitude":15.042,"longitude":39.82,"PEI":4,"H_active":0,"VEI_Holoce":"No confirmed eruptions","hazard":"NULL","class":"U-NHHR","risk":"NULL","field_14":null,"field_15":null}
{"_id":{"$oid":"5d9dec992ebe2da7d4dacf65"},"VolcanoID":221060,"V_Name":"Alu","Country":"Ethiopia","Region":"Africa and Red Sea","Subregion":"Africa (northeastern) and Red Sea","latitude":13.825,"longitude":40.508,"PEI":2,"H_active":0,"VEI_Holoce":"No confirmed eruptions","hazard":"NULL","class":"U-NHHR","risk":"NULL","field_14":null,"field_15":null}
{"_id":{"$oid":"5d9dec992ebe2da7d4dacf66"},"VolcanoID":221070,"V_Name":"Dalaffilla","Country":"Ethiopia","Region":"Africa and Red Sea","Subregion":"Africa (northeastern) and Red Sea","latitude":13.792,"longitude":40.55,"PEI":2,"H_active":1,"VEI_Holoce":"3","hazard":"NULL","class":"U-HHR","risk":"NULL","field_14":null,"field_15":null}
{"_id":{"$oid":"5d9dec992ebe2da7d4dacf67"},"VolcanoID":221020,"V_Name":"Zubair Group","Country":"Yemen","Region":"Africa and Red Sea","Subregion":"Africa (northeastern) and Red Sea","latitude":15.05,"longitude":42.18,"PEI":2,"H_active":1,"VEI_Holoce":"2","hazard":"NULL","class":"U-HHR","risk":"NULL","field_14":null,"field_15":null}
{"_id":{"$oid":"5d9dec992ebe2da7d4dacf68"},"VolcanoID":221071,"V_Name":"Borale Ale","Country":"Ethiopia","Region":"Africa and Red Sea","Subregion":"Africa (northeastern) and Red Sea","latitude":13.725,"longitude":40.6,"PEI":2,"H_active":0,"VEI_Holoce":"No confirmed eruptions","hazard":"NULL","class":"U-NHHR","risk":"NULL","field_14":null,"field_15":null}
{"_id":{"$oid":"5d9dec992ebe2da7d4dacf69"},"VolcanoID":221080,"V_Name":"Erta Ale","Country":"Ethiopia","Region":"Africa and Red Sea","Subregion":"Africa (northeastern) and Red Sea","latitude":13.6,"longitude":40.67,"PEI":3,"H_active":1,"VEI_Holoce":"0","hazard":"1","class":"NULL","risk":"1","field_14":null,"field_15":null}
{"_id":{"$oid":"5d9dec992ebe2da7d4dacf6a"},"VolcanoID":221050,"V_Name":"Gada Ale","Country":"Ethiopia","Region":"Africa and Red Sea","Subregion":"Africa (northeastern) and Red Sea","latitude":13.975,"longitude":40.408,"PEI":2,"H_active":0,"VEI_Holoce":"No confirmed eruptions","hazard":"NULL","class":"U-NHHR","risk":"NULL","field_14":null,"field_15":null}
{"_id":{"$oid":"5d9dec992ebe2da7d4dacf6b"},"VolcanoID":221090,"V_Name":"Ale Bagu","Country":"Ethiopia","Region":"Africa and Red Sea","Subregion":"Africa (northeastern) and Red Sea","latitude":13.52,"longitude":40.63,"PEI":2,"H_active":0,"VEI_Holoce":"No confirmed eruptions","hazard":"NULL","class":"U-NHHR","risk":"NULL","field_14":null,"field_15":null}
{"_id":{"$oid":"5d9dec992ebe2da7d4dacf6c"},"VolcanoID":221091,"V_Name":"Hayli Gubbi","Country":"Ethiopia","Region":"Africa and Red Sea","Subregion":"Africa (northeastern) and Red Sea","latitude":13.5,"longitude":40.72,"PEI":2,"H_active":0,"VEI_Holoce":"No confirmed eruptions","hazard":"NULL","class":"U-NHHR","risk":"NULL","field_14":null,"field_15":null}
{"_id":{"$oid":"5d9dec992ebe2da7d4dacf6d"},"VolcanoID":221100,"V_Name":"Dubbi","Country":"Eritrea","Region":"Africa and Red Sea","Subregion":"Africa (northeastern) and Red Sea","latitude":13.58,"longitude":41.808,"PEI":2,"H_active":1,"VEI_Holoce":"3","hazard":"NULL","class":"U-HHR","risk":"NULL","field_14":null,"field_15":null}
{"_id":{"$oid":"5d9dec992ebe2da7d4dacf6e"},"VolcanoID":221102,"V_Name":"Mallahle","Country":"Ethiopia-Eritrea","Region":"Africa and Red Sea","Subregion":"Africa (northeastern) and Red Sea","latitude":13.27,"longitude":41.65,"PEI":2,"H_active":0,"VEI_Holoce":"No confirmed eruptions","hazard":"NULL","class":"U-NHHR","risk":"NULL","field_14":null,"field_15":null}
{"_id":{"$oid":"5d9dec992ebe2da7d4dacf6f"},"VolcanoID":221103,"V_Name":"Sork Ale","Country":"Ethiopia-Eritrea","Region":"Africa and Red Sea","Subregion":"Africa (northeastern) and Red Sea","latitude":13.18,"longitude":41.725,"PEI":2,"H_active":0,"VEI_Holoce":"No confirmed eruptions","hazard":"NULL","class":"U-NHHR","risk":"NULL","field_14":null,"field_15":null}
{"_id":{"$oid":"5d9dec992ebe2da7d4dacf70"},"VolcanoID":221101,"V_Name":"Nabro","Country":"Eritrea","Region":"Africa and Red Sea","Subregion":"Africa (northeastern) and Red Sea","latitude":13.37,"longitude":41.7,"PEI":2,"H_active":1,"VEI_Holoce":"4","hazard":"NULL","class":"U-HHR","risk":"NULL","field_14":null,"field_15":null}
{"_id":{"$oid":"5d9dec992ebe2da7d4dacf71"},"VolcanoID":221104,"V_Name":"Asavyo","Country":"Ethiopia","Region":"Africa and Red Sea","Subregion":"Africa (northeastern) and Red Sea","latitude":13.07,"longitude":41.6,"PEI":2,"H_active":0,"VEI_Holoce":"No confirmed eruptions","hazard":"NULL","class":"U-NHHR","risk":"NULL","field_14":null,"field_15":null}
{"_id":{"$oid":"5d9dec992ebe2da7d4dacf72"},"VolcanoID":221105,"V_Name":"Mat Ala","Country":"Ethiopia","Region":"Africa and Red Sea","Subregion":"Africa (northeastern) and Red Sea","latitude":13.1,"longitude":41.15,"PEI":2,"H_active":0,"VEI_Holoce":"No confirmed eruptions","hazard":"NULL","class":"U-NHHR","risk":"NULL","field_14":null,"field_15":null}
{"_id":{"$oid":"5d9dec992ebe2da7d4dacf73"},"VolcanoID":221106,"V_Name":"Tat Ali","Country":"Ethiopia","Region":"Africa and Red Sea","Subregion":"Africa (northeastern) and Red Sea","latitude":13.28,"longitude":41.07,"PEI":2,"H_active":0,"VEI_Holoce":"No confirmed eruptions","hazard":"NULL","class":"U-NHHR","risk":"NULL","field_14":null,"field_15":null}
{"_id":{"$oid":"5d9dec992ebe2da7d4dacf74"},"VolcanoID":221107,"V_Name":"Borawli","Country":"Ethiopia","Region":"Africa and Red Sea","Subregion":"Africa (northeastern) and Red Sea","latitude":13.3,"longitude":40.98,"PEI":2,"H_active":0,"VEI_Holoce":"No confirmed eruptions","hazard":"NULL","class":"U-NHHR","risk":"NULL","field_14":null,"field_15":null}
{"_id":{"$oid":"5d9dec992ebe2da7d4dacf75"},"VolcanoID":221110,"V_Name":"Afder?","Country":"Ethiopia","Region":"Africa and Red Sea","Subregion":"Africa (northeastern) and Red Sea","latitude":13.08,"longitude":40.85,"PEI":3,"H_active":0,"VEI_Holoce":"No confirmed eruptions","hazard":"NULL","class":"U-NHHR","risk":"NULL","field_14":null,"field_15":null}
{"_id":{"$oid":"5d9dec992ebe2da7d4dacf76"},"VolcanoID":221111,"V_Name":"Ma Alalta","Country":"Ethiopia","Region":"Africa and Red Sea","Subregion":"Africa (northeastern) and Red Sea","latitude":13.02,"longitude":40.2,"PEI":4,"H_active":0,"VEI_Holoce":"No confirmed eruptions","hazard":"NULL","class":"U-NHHR","risk":"NULL","field_14":null,"field_15":null}
{"_id":{"$oid":"5d9dec992ebe2da7d4dacf77"},"VolcanoID":221113,"V_Name":"Dabbahu","Country":"Ethiopia","Region":"Africa and Red Sea","Subregion":"Africa (northeastern) and Red Sea","latitude":12.6,"longitude":40.48,"PEI":3,"H_active":1,"VEI_Holoce":"3","hazard":"NULL","class":"U-HHR","risk":"NULL","field_14":null,"field_15":null}
{"_id":{"$oid":"5d9dec992ebe2da7d4dacf78"},"VolcanoID":221112,"V_Name":"Alayta","Country":"Ethiopia","Region":"Africa and Red Sea","Subregion":"Africa (northeastern) and Red Sea","latitude":12.88,"longitude":40.57,"PEI":2,"H_active":1,"VEI_Holoce":"2","hazard":"NULL","class":"U-HHR","risk":"NULL","field_14":null,"field_15":null}
{"_id":{"$oid":"5d9dec992ebe2da7d4dacf79"},"VolcanoID":221116,"V_Name":"Groppo","Country":"Ethiopia","Region":"Africa and Red Sea","Subregion":"Africa (northeastern) and Red Sea","latitude":11.73,"longitude":40.25,"PEI":4,"H_active":0,"VEI_Holoce":"No confirmed eruptions","hazard":"NULL","class":"U-NHHR","risk":"NULL","field_14":null,"field_15":null}
{"_id":{"$oid":"5d9dec992ebe2da7d4dacf7a"},"VolcanoID":221114,"V_Name":"Dabbayra","Country":"Ethiopia","Region":"Africa and Red Sea","Subregion":"Africa (northeastern) and Red Sea","latitude":12.38,"longitude":40.07,"PEI":3,"H_active":0,"VEI_Holoce":"No confirmed eruptions","hazard":"NULL","class":"U-NHHR","risk":"NULL","field_14":null,"field_15":null}
{"_id":{"$oid":"5d9dec992ebe2da7d4dacf7b"},"VolcanoID":221121,"V_Name":"Borawli","Country":"Ethiopia","Region":"Africa and Red Sea","Subregion":"Africa (northeastern) and Red Sea","latitude":11.63,"longitude":41.45,"PEI":5,"H_active":0,"VEI_Holoce":"No confirmed eruptions","hazard":"NULL","class":"U-NHHR","risk":"NULL","field_14":null,"field_15":null}
{"_id":{"$oid":"5d9dec992ebe2da7d4dacf7c"},"VolcanoID":221115,"V_Name":"Manda Hararo","Country":"Ethiopia","Region":"Africa and Red Sea","Subregion":"Africa (northeastern) and Red Sea","latitude":12.17,"longitude":40.82,"PEI":2,"H_active":1,"VEI_Holoce":"2","hazard":"NULL","class":"U-HHR","risk":"NULL","field_14":null,"field_15":null}
{"_id":{"$oid":"5d9dec992ebe2da7d4dacf7d"},"VolcanoID":221120,"V_Name":"Kurub","Country":"Ethiopia","Region":"Africa and Red Sea","Subregion":"Africa (northeastern) and Red Sea","latitude":11.88,"longitude":41.208,"PEI":2,"H_active":0,"VEI_Holoce":"No confirmed eruptions","hazard":"NULL","class":"U-NHHR","risk":"NULL","field_14":null,"field_15":null}
{"_id":{"$oid":"5d9dec992ebe2da7d4dacf7e"},"VolcanoID":221123,"V_Name":"Mousa Alli","Country":"Ethiopia-Eritrea-Djibouti","Region":"Africa and Red Sea","Subregion":"Africa (northeastern) and Red Sea","latitude":12.47,"longitude":42.4,"PEI":2,"H_active":0,"VEI_Holoce":"No confirmed eruptions","hazard":"NULL","class":"U-NHHR","risk":"NULL","field_14":null,"field_15":null}
{"_id":{"$oid":"5d9dec992ebe2da7d4dacf7f"},"VolcanoID":221124,"V_Name":"Gufa","Country":"Eritrea-Djibouti","Region":"Africa and Red Sea","Subregion":"Africa (northeastern) and Red Sea","latitude":12.55,"longitude":42.53,"PEI":2,"H_active":0,"VEI_Holoce":"No confirmed eruptions","hazard":"NULL","class":"U-NHHR","risk":"NULL","field_14":null,"field_15":null}
{"_id":{"$oid":"5d9dec992ebe2da7d4dacf80"},"VolcanoID":221125,"V_Name":"Assab Volcanic Field","Country":"Eritrea","Region":"Africa and Red Sea","Subregion":"Africa (northeastern) and Red Sea","latitude":12.95,"longitude":42.43,"PEI":2,"H_active":0,"VEI_Holoce":"No confirmed eruptions","hazard":"NULL","class":"U-NHHR","risk":"NULL","field_14":null,"field_15":null}
{"_id":{"$oid":"5d9dec992ebe2da7d4dacf81"},"VolcanoID":221126,"V_Name":"Ardouk?ba","Country":"Djibouti","Region":"Africa and Red Sea","Subregion":"Africa (northeastern) and Red Sea","latitude":11.58,"longitude":42.47,"PEI":3,"H_active":1,"VEI_Holoce":"1","hazard":"NULL","class":"U-HHR","risk":"NULL","field_14":null,"field_15":null}
{"_id":{"$oid":"5d9dec992ebe2da7d4dacf82"},"VolcanoID":221122,"V_Name":"Manda-Inakir","Country":"Ethiopia-Djibouti","Region":"Africa and Red Sea","Subregion":"Africa (northeastern) and Red Sea","latitude":12.38,"longitude":42.2,"PEI":2,"H_active":1,"VEI_Holoce":"2","hazard":"NULL","class":"U-HHR","risk":"NULL","field_14":null,"field_15":null}
{"_id":{"$oid":"5d9dec992ebe2da7d4dacf83"},"VolcanoID":221141,"V_Name":"Dama Ali","Country":"Ethiopia","Region":"Africa and Red Sea","Subregion":"Africa (northeastern) and Red Sea","latitude":11.28,"longitude":41.63,"PEI":3,"H_active":1,"VEI_Holoce":"Unknown VEI","hazard":"NULL","class":"U-HHR","risk":"NULL","field_14":null,"field_15":null}
{"_id":{"$oid":"5d9dec992ebe2da7d4dacf84"},"VolcanoID":221127,"V_Name":"Manda Gargori","Country":"Ethiopia","Region":"Africa and Red Sea","Subregion":"Africa (northeastern) and Red Sea","latitude":11.75,"longitude":41.48,"PEI":3,"H_active":0,"VEI_Holoce":"No confirmed eruptions","hazard":"NULL","class":"U-NHHR","risk":"NULL","field_14":null,"field_15":null}
{"_id":{"$oid":"5d9dec992ebe2da7d4dacf85"},"VolcanoID":221150,"V_Name":"Gabillema","Country":"Ethiopia","Region":"Africa and Red Sea","Subregion":"Africa (northeastern) and Red Sea","latitude":11.08,"longitude":41.27,"PEI":2,"H_active":0,"VEI_Holoce":"No confirmed eruptions","hazard":"NULL","class":"U-NHHR","risk":"NULL","field_14":null,"field_15":null}
{"_id":{"$oid":"5d9dec992ebe2da7d4dacf86"},"VolcanoID":221151,"V_Name":"Yangudi","Country":"Ethiopia","Region":"Africa and Red Sea","Subregion":"Africa (northeastern) and Red Sea","latitude":10.58,"longitude":41.042,"PEI":2,"H_active":0,"VEI_Holoce":"No confirmed eruptions","hazard":"NULL","class":"U-NHHR","risk":"NULL","field_14":null,"field_15":null}
{"_id":{"$oid":"5d9dec992ebe2da7d4dacf87"},"VolcanoID":221160,"V_Name":"Ayelu","Country":"Ethiopia","Region":"Africa and Red Sea","Subregion":"Africa (northeastern) and Red Sea","latitude":10.082,"longitude":40.702,"PEI":3,"H_active":0,"VEI_Holoce":"No confirmed eruptions","hazard":"NULL","class":"U-NHHR","risk":"NULL","field_14":null,"field_15":null}
{"_id":{"$oid":"5d9dec992ebe2da7d4dacf88"},"VolcanoID":221170,"V_Name":"Adwa","Country":"Ethiopia","Region":"Africa and Red Sea","Subregion":"Africa (northeastern) and Red Sea","latitude":10.07,"longitude":40.84,"PEI":3,"H_active":0,"VEI_Holoce":"No confirmed eruptions","hazard":"NULL","class":"U-NHHR","risk":"NULL","field_14":null,"field_15":null}
{"_id":{"$oid":"5d9dec992ebe2da7d4dacf89"},"VolcanoID":221171,"V_Name":"Hertali","Country":"Ethiopia","Region":"Africa and Red Sea","Subregion":"Africa (northeastern) and Red Sea","latitude":9.78,"longitude":40.33,"PEI":3,"H_active":0,"VEI_Holoce":"No confirmed eruptions","hazard":"NULL","class":"U-NHHR","risk":"NULL","field_14":null,"field_15":null}
{"_id":{"$oid":"5d9dec992ebe2da7d4dacf8a"},"VolcanoID":221172,"V_Name":"Liado Hayk","Country":"Ethiopia","Region":"Africa and Red Sea","Subregion":"Africa (northeastern) and Red Sea","latitude":9.57,"longitude":40.28,"PEI":4,"H_active":0,"VEI_Holoce":"No confirmed eruptions","hazard":"NULL","class":"U-NHHR","risk":"NULL","field_14":null,"field_15":null}
{"_id":{"$oid":"5d9dec992ebe2da7d4dacf8b"},"VolcanoID":221190,"V_Name":"Fentale","Country":"Ethiopia","Region":"Africa and Red Sea","Subregion":"Africa (northeastern) and Red Sea","latitude":8.975,"longitude":39.93,"PEI":4,"H_active":1,"VEI_Holoce":"0","hazard":"NULL","class":"U-HHR","risk":"NULL","field_14":null,"field_15":null}
{"_id":{"$oid":"5d9dec992ebe2da7d4dacf8c"},"VolcanoID":221191,"V_Name":"Beru","Country":"Ethiopia","Region":"Africa and Red Sea","Subregion":"Africa (northeastern) and Red Sea","latitude":8.95,"longitude":39.75,"PEI":5,"H_active":0,"VEI_Holoce":"No confirmed eruptions","hazard":"NULL","class":"U-NHHR","risk":"NULL","field_14":null,"field_15":null}
{"_id":{"$oid":"5d9dec992ebe2da7d4dacf8d"},"VolcanoID":221180,"V_Name":"Dofen","Country":"Ethiopia","Region":"Africa and Red Sea","Subregion":"Africa (northeastern) and Red Sea","latitude":9.35,"longitude":40.13,"PEI":4,"H_active":0,"VEI_Holoce":"No confirmed eruptions","hazard":"NULL","class":"U-NHHR","risk":"NULL","field_14":null,"field_15":null}
{"_id":{"$oid":"5d9dec992ebe2da7d4dacf8e"},"VolcanoID":221200,"V_Name":"Kone","Country":"Ethiopia","Region":"Africa and Red Sea","Subregion":"Africa (northeastern) and Red Sea","latitude":8.8,"longitude":39.692,"PEI":5,"H_active":1,"VEI_Holoce":"1","hazard":"NULL","class":"U-HHR","risk":"NULL","field_14":null,"field_15":null}
{"_id":{"$oid":"5d9dec992ebe2da7d4dacf8f"},"VolcanoID":221201,"V_Name":"Unnamed","Country":"Ethiopia","Region":"Africa and Red Sea","Subregion":"Africa (northeastern) and Red Sea","latitude":8.7,"longitude":39.63,"PEI":6,"H_active":0,"VEI_Holoce":"No confirmed eruptions","hazard":"NULL","class":"U-NHHR","risk":"NULL","field_14":null,"field_15":null}
{"_id":{"$oid":"5d9dec992ebe2da7d4dacf90"},"VolcanoID":221210,"V_Name":"Boset-Bericha","Country":"Ethiopia","Region":"Africa and Red Sea","Subregion":"Africa (northeastern) and Red Sea","latitude":8.558,"longitude":39.475,"PEI":5,"H_active":0,"VEI_Holoce":"No confirmed eruptions","hazard":"NULL","class":"U-NHHR","risk":"NULL","field_14":null,"field_15":null}
{"_id":{"$oid":"5d9dec992ebe2da7d4dacf91"},"VolcanoID":221220,"V_Name":"Bishoftu Volcanic Field","Country":"Ethiopia","Region":"Africa and Red Sea","Subregion":"Africa (northeastern) and Red Sea","latitude":8.78,"longitude":38.98,"PEI":7,"H_active":0,"VEI_Holoce":"No confirmed eruptions","hazard":"NULL","class":"U-NHHR","risk":"NULL","field_14":null,"field_15":null}
{"_id":{"$oid":"5d9dec992ebe2da7d4dacf92"},"VolcanoID":221221,"V_Name":"Unnamed","Country":"Ethiopia","Region":"Africa and Red Sea","Subregion":"Africa (northeastern) and Red Sea","latitude":8.62,"longitude":38.95,"PEI":7,"H_active":0,"VEI_Holoce":"No confirmed eruptions","hazard":"NULL","class":"U-NHHR","risk":"NULL","field_14":null,"field_15":null}
{"_id":{"$oid":"5d9dec992ebe2da7d4dacf93"},"VolcanoID":221230,"V_Name":"Gedamsa","Country":"Ethiopia","Region":"Africa and Red Sea","Subregion":"Africa (northeastern) and Red Sea","latitude":8.35,"longitude":39.18,"PEI":6,"H_active":0,"VEI_Holoce":"No confirmed eruptions","hazard":"NULL","class":"U-NHHR","risk":"NULL","field_14":null,"field_15":null}
{"_id":{"$oid":"5d9dec992ebe2da7d4dacf94"},"VolcanoID":221222,"V_Name":"Sodore","Country":"Ethiopia","Region":"Africa and Red Sea","Subregion":"Africa (northeastern) and Red Sea","latitude":8.43,"longitude":39.35,"PEI":7,"H_active":0,"VEI_Holoce":"No confirmed eruptions","hazard":"NULL","class":"U-NHHR","risk":"NULL","field_14":null,"field_15":null}
{"_id":{"$oid":"5d9dec992ebe2da7d4dacf95"},"VolcanoID":221251,"V_Name":"Unnamed","Country":"Ethiopia","Region":"Africa and Red Sea","Subregion":"Africa (northeastern) and Red Sea","latitude":8.07,"longitude":39.07,"PEI":6,"H_active":0,"VEI_Holoce":"No confirmed eruptions","hazard":"NULL","class":"U-NHHR","risk":"NULL","field_14":null,"field_15":null}
{"_id":{"$oid":"5d9dec992ebe2da7d4dacf96"},"VolcanoID":221250,"V_Name":"Tullu Moje","Country":"Ethiopia","Region":"Africa and Red Sea","Subregion":"Africa (northeastern) and Red Sea","latitude":8.158,"longitude":39.13,"PEI":5,"H_active":1,"VEI_Holoce":"Unknown VEI","hazard":"NULL","class":"U-HHR","risk":"NULL","field_14":null,"field_15":null}
{"_id":{"$oid":"5d9dec992ebe2da7d4dacf97"},"VolcanoID":221252,"V_Name":"East Zway","Country":"Ethiopia","Region":"Africa and Red Sea","Subregion":"Africa (northeastern) and Red Sea","latitude":7.95,"longitude":38.93,"PEI":6,"H_active":0,"VEI_Holoce":"No confirmed eruptions","hazard":"NULL","class":"U-NHHR","risk":"NULL","field_14":null,"field_15":null}
{"_id":{"$oid":"5d9dec992ebe2da7d4dacf98"},"VolcanoID":221240,"V_Name":"Bora-Bericcio","Country":"Ethiopia","Region":"Africa and Red Sea","Subregion":"Africa (northeastern) and Red Sea","latitude":8.27,"longitude":39.03,"PEI":5,"H_active":0,"VEI_Holoce":"No confirmed eruptions","hazard":"NULL","class":"U-NHHR","risk":"NULL","field_14":null,"field_15":null}
{"_id":{"$oid":"5d9dec992ebe2da7d4dacf99"},"VolcanoID":221260,"V_Name":"Butajiri-Silti Field","Country":"Ethiopia","Region":"Africa and Red Sea","Subregion":"Africa (northeastern) and Red Sea","latitude":8.05,"longitude":38.35,"PEI":7,"H_active":0,"VEI_Holoce":"No confirmed eruptions","hazard":"NULL","class":"U-NHHR","risk":"NULL","field_14":null,"field_15":null}
{"_id":{"$oid":"5d9dec992ebe2da7d4dacf9a"},"VolcanoID":221280,"V_Name":"O'a Caldera(s)","Country":"Ethiopia","Region":"Africa and Red Sea","Subregion":"Africa (northeastern) and Red Sea","latitude":7.47,"longitude":38.58,"PEI":6,"H_active":0,"VEI_Holoce":"No confirmed eruptions","hazard":"NULL","class":"U-NHHR","risk":"NULL","field_14":null,"field_15":null}
{"_id":{"$oid":"5d9dec992ebe2da7d4dacf9b"},"VolcanoID":221290,"V_Name":"Corbetti Caldera(s)","Country":"Ethiopia","Region":"Africa and Red Sea","Subregion":"Africa (northeastern) and Red Sea","latitude":7.18,"longitude":38.43,"PEI":7,"H_active":0,"VEI_Holoce":"No confirmed eruptions","hazard":"NULL","class":"U-NHHR","risk":"NULL","field_14":null,"field_15":null}
{"_id":{"$oid":"5d9dec992ebe2da7d4dacf9c"},"VolcanoID":221270,"V_Name":"Alutu","Country":"Ethiopia","Region":"Africa and Red Sea","Subregion":"Africa (northeastern) and Red Sea","latitude":7.77,"longitude":38.78,"PEI":5,"H_active":0,"VEI_Holoce":"Unknown VEI","hazard":"NULL","class":"U-HR","risk":"NULL","field_14":null,"field_15":null}
{"_id":{"$oid":"5d9dec992ebe2da7d4dacf9d"},"VolcanoID":221291,"V_Name":"Bilate River Field","Country":"Ethiopia","Region":"Africa and Red Sea","Subregion":"Africa (northeastern) and Red Sea","latitude":7.07,"longitude":38.1,"PEI":7,"H_active":0,"VEI_Holoce":"No confirmed eruptions","hazard":"NULL","class":"U-NHHR","risk":"NULL","field_14":null,"field_15":null}
{"_id":{"$oid":"5d9dec992ebe2da7d4dacf9e"},"VolcanoID":221292,"V_Name":"Tepi","Country":"Ethiopia","Region":"Africa and Red Sea","Subregion":"Africa (northeastern) and Red Sea","latitude":7.42,"longitude":35.43,"PEI":5,"H_active":0,"VEI_Holoce":"No confirmed eruptions","hazard":"NULL","class":"U-NHHR","risk":"NULL","field_14":null,"field_15":null}
{"_id":{"$oid":"5d9dec992ebe2da7d4dacf9f"},"VolcanoID":221293,"V_Name":"Hobicha Caldera(s)","Country":"Ethiopia","Region":"Africa and Red Sea","Subregion":"Africa (northeastern) and Red Sea","latitude":6.78,"longitude":37.83,"PEI":7,"H_active":0,"VEI_Holoce":"No confirmed eruptions","hazard":"NULL","class":"U-NHHR","risk":"NULL","field_14":null,"field_15":null}
{"_id":{"$oid":"5d9dec992ebe2da7d4dacfa0"},"VolcanoID":221311,"V_Name":"Unnamed","Country":"Ethiopia","Region":"Africa and Red Sea","Subregion":"Africa (northeastern) and Red Sea","latitude":5.65,"longitude":37.67,"PEI":5,"H_active":0,"VEI_Holoce":"No confirmed eruptions","hazard":"NULL","class":"U-NHHR","risk":"NULL","field_14":null,"field_15":null}
{"_id":{"$oid":"5d9dec992ebe2da7d4dacfa1"},"VolcanoID":221330,"V_Name":"Mega Basalt Field","Country":"Ethiopia-Kenya","Region":"Africa and Red Sea","Subregion":"Africa (northeastern) and Red Sea","latitude":4.08,"longitude":37.42,"PEI":3,"H_active":0,"VEI_Holoce":"No confirmed eruptions","hazard":"NULL","class":"U-NHHR","risk":"NULL","field_14":null,"field_15":null}
{"_id":{"$oid":"5d9dec992ebe2da7d4dacfa2"},"VolcanoID":221320,"V_Name":"Korath Range","Country":"Ethiopia","Region":"Africa and Red Sea","Subregion":"Africa (northeastern) and Red Sea","latitude":5.1,"longitude":35.88,"PEI":4,"H_active":0,"VEI_Holoce":"No confirmed eruptions","hazard":"NULL","class":"U-NHHR","risk":"NULL","field_14":null,"field_15":null}
{"_id":{"$oid":"5d9dec992ebe2da7d4dacfa3"},"VolcanoID":222001,"V_Name":"North Island","Country":"Kenya","Region":"Africa and Red Sea","Subregion":"Africa (eastern)","latitude":4.07,"longitude":36.05,"PEI":2,"H_active":0,"VEI_Holoce":"No confirmed eruptions","hazard":"NULL","class":"U-NHHR","risk":"NULL","field_14":null,"field_15":null}
{"_id":{"$oid":"5d9dec992ebe2da7d4dacfa4"},"VolcanoID":221300,"V_Name":"Chiracha","Country":"Ethiopia","Region":"Africa and Red Sea","Subregion":"Africa (northeastern) and Red Sea","latitude":6.65,"longitude":38.12,"PEI":5,"H_active":0,"VEI_Holoce":"No confirmed eruptions","hazard":"NULL","class":"U-NHHR","risk":"NULL","field_14":null,"field_15":null}
{"_id":{"$oid":"5d9dec992ebe2da7d4dacfa5"},"VolcanoID":221310,"V_Name":"Tosa Sucha","Country":"Ethiopia","Region":"Africa and Red Sea","Subregion":"Africa (northeastern) and Red Sea","latitude":5.93,"longitude":37.57,"PEI":6,"H_active":0,"VEI_Holoce":"No confirmed eruptions","hazard":"NULL","class":"U-NHHR","risk":"NULL","field_14":null,"field_15":null}
{"_id":{"$oid":"5d9dec992ebe2da7d4dacfa6"},"VolcanoID":222010,"V_Name":"Central Island","Country":"Kenya","Region":"Africa and Red Sea","Subregion":"Africa (eastern)","latitude":3.5,"longitude":36.042,"PEI":2,"H_active":0,"VEI_Holoce":"No confirmed eruptions","hazard":"NULL","class":"U-NHHR","risk":"NULL","field_14":null,"field_15":null}
{"_id":{"$oid":"5d9dec992ebe2da7d4dacfa7"},"VolcanoID":222030,"V_Name":"Barrier, The","Country":"Kenya","Region":"Africa and Red Sea","Subregion":"Africa (eastern)","latitude":2.32,"longitude":36.57,"PEI":2,"H_active":1,"VEI_Holoce":"2","hazard":"1","class":"NULL","risk":"1","field_14":null,"field_15":null}
{"_id":{"$oid":"5d9dec992ebe2da7d4dacfa8"},"VolcanoID":222021,"V_Name":"Marsabit","Country":"Kenya","Region":"Africa and Red Sea","Subregion":"Africa (eastern)","latitude":2.32,"longitude":37.97,"PEI":4,"H_active":0,"VEI_Holoce":"No confirmed eruptions","hazard":"NULL","class":"U-NHHR","risk":"NULL","field_14":null,"field_15":null}
{"_id":{"$oid":"5d9dec992ebe2da7d4dacfa9"},"VolcanoID":222020,"V_Name":"South Island","Country":"Kenya","Region":"Africa and Red Sea","Subregion":"Africa (eastern)","latitude":2.63,"longitude":36.6,"PEI":2,"H_active":1,"VEI_Holoce":"1","hazard":"NULL","class":"U-HHR","risk":"NULL","field_14":null,"field_15":null}
{"_id":{"$oid":"5d9dec992ebe2da7d4dacfaa"},"VolcanoID":222051,"V_Name":"Emuruangogolak","Country":"Kenya","Region":"Africa and Red Sea","Subregion":"Africa (eastern)","latitude":1.5,"longitude":36.33,"PEI":2,"H_active":1,"VEI_Holoce":"0","hazard":"NULL","class":"U-HHR","risk":"NULL","field_14":null,"field_15":null}
{"_id":{"$oid":"5d9dec992ebe2da7d4dacfab"},"VolcanoID":222053,"V_Name":"Paka","Country":"Kenya","Region":"Africa and Red Sea","Subregion":"Africa (eastern)","latitude":0.92,"longitude":36.18,"PEI":3,"H_active":0,"VEI_Holoce":"4","hazard":"NULL","class":"U-HR","risk":"NULL","field_14":null,"field_15":null}
{"_id":{"$oid":"5d9dec992ebe2da7d4dacfac"},"VolcanoID":222052,"V_Name":"Silali","Country":"Kenya","Region":"Africa and Red Sea","Subregion":"Africa (eastern)","latitude":1.15,"longitude":36.23,"PEI":3,"H_active":0,"VEI_Holoce":"Unknown VEI","hazard":"NULL","class":"U-HR","risk":"NULL","field_14":null,"field_15":null}
{"_id":{"$oid":"5d9dec992ebe2da7d4dacfad"},"VolcanoID":222040,"V_Name":"Namarunu","Country":"Kenya","Region":"Africa and Red Sea","Subregion":"Africa (eastern)","latitude":1.98,"longitude":36.43,"PEI":2,"H_active":0,"VEI_Holoce":"Unknown VEI","hazard":"NULL","class":"U-HR","risk":"NULL","field_14":null,"field_15":null}
{"_id":{"$oid":"5d9dec992ebe2da7d4dacfae"},"VolcanoID":222050,"V_Name":"Segererua Plateau","Country":"Kenya","Region":"Africa and Red Sea","Subregion":"Africa (eastern)","latitude":1.57,"longitude":37.9,"PEI":3,"H_active":0,"VEI_Holoce":"No confirmed eruptions","hazard":"NULL","class":"U-NHHR","risk":"NULL","field_14":null,"field_15":null}
{"_id":{"$oid":"5d9dec992ebe2da7d4dacfaf"},"VolcanoID":222054,"V_Name":"Korosi","Country":"Kenya","Region":"Africa and Red Sea","Subregion":"Africa (eastern)","latitude":0.77,"longitude":36.12,"PEI":4,"H_active":0,"VEI_Holoce":"No confirmed eruptions","hazard":"NULL","class":"U-NHHR","risk":"NULL","field_14":null,"field_15":null}
{"_id":{"$oid":"5d9dec992ebe2da7d4dacfb0"},"VolcanoID":222055,"V_Name":"Ol Kokwe","Country":"Kenya","Region":"Africa and Red Sea","Subregion":"Africa (eastern)","latitude":0.62,"longitude":36.075,"PEI":4,"H_active":0,"VEI_Holoce":"No confirmed eruptions","hazard":"NULL","class":"U-NHHR","risk":"NULL","field_14":null,"field_15":null}
{"_id":{"$oid":"5d9dec992ebe2da7d4dacfb1"},"VolcanoID":222060,"V_Name":"Menengai","Country":"Kenya","Region":"Africa and Red Sea","Subregion":"Africa (eastern)","latitude":-0.2,"longitude":36.07,"PEI":6,"H_active":0,"VEI_Holoce":"6","hazard":"NULL","class":"U-HR","risk":"NULL","field_14":null,"field_15":null}
{"_id":{"$oid":"5d9dec992ebe2da7d4dacfb2"},"VolcanoID":222071,"V_Name":"Elmenteita Badlands","Country":"Kenya","Region":"Africa and Red Sea","Subregion":"Africa (eastern)","latitude":-0.52,"longitude":36.27,"PEI":6,"H_active":0,"VEI_Holoce":"No confirmed eruptions","hazard":"NULL","class":"U-NHHR","risk":"NULL","field_14":null,"field_15":null}
{"_id":{"$oid":"5d9dec992ebe2da7d4dacfb3"},"VolcanoID":222070,"V_Name":"Homa Mountain","Country":"Kenya","Region":"Africa and Red Sea","Subregion":"Africa (eastern)","latitude":-0.38,"longitude":34.5,"PEI":5,"H_active":0,"VEI_Holoce":"No confirmed eruptions","hazard":"NULL","class":"U-NHHR","risk":"NULL","field_14":null,"field_15":null}
{"_id":{"$oid":"5d9dec992ebe2da7d4dacfb4"},"VolcanoID":222056,"V_Name":"Nyambeni Hills","Country":"Kenya","Region":"Africa and Red Sea","Subregion":"Africa (eastern)","latitude":0.23,"longitude":37.87,"PEI":6,"H_active":0,"VEI_Holoce":"No confirmed eruptions","hazard":"NULL","class":"U-NHHR","risk":"NULL","field_14":null,"field_15":null}
{"_id":{"$oid":"5d9dec992ebe2da7d4dacfb5"},"VolcanoID":222110,"V_Name":"Suswa","Country":"Kenya","Region":"Africa and Red Sea","Subregion":"Africa (eastern)","latitude":-1.175,"longitude":36.35,"PEI":4,"H_active":0,"VEI_Holoce":"No confirmed eruptions","hazard":"NULL","class":"U-NHHR","risk":"NULL","field_14":null,"field_15":null}
{"_id":{"$oid":"5d9dec992ebe2da7d4dacfb6"},"VolcanoID":222090,"V_Name":"Olkaria","Country":"Kenya","Region":"Africa and Red Sea","Subregion":"Africa (eastern)","latitude":-0.904,"longitude":36.292,"PEI":5,"H_active":1,"VEI_Holoce":"Unknown VEI","hazard":"NULL","class":"U-HHR","risk":"NULL","field_14":null,"field_15":null}
{"_id":{"$oid":"5d9dec992ebe2da7d4dacfb7"},"VolcanoID":222080,"V_Name":"Eburru, Ol Doinyo","Country":"Kenya","Region":"Africa and Red Sea","Subregion":"Africa (eastern)","latitude":-0.65,"longitude":36.22,"PEI":5,"H_active":0,"VEI_Holoce":"No confirmed eruptions","hazard":"NULL","class":"U-NHHR","risk":"NULL","field_14":null,"field_15":null}
{"_id":{"$oid":"5d9dec992ebe2da7d4dacfb8"},"VolcanoID":222100,"V_Name":"Longonot","Country":"Kenya","Region":"Africa and Red Sea","Subregion":"Africa (eastern)","latitude":-0.914,"longitude":36.446,"PEI":5,"H_active":1,"VEI_Holoce":"0","hazard":"NULL","class":"U-HHR","risk":"NULL","field_14":null,"field_15":null}
{"_id":{"$oid":"5d9dec992ebe2da7d4dacfb9"},"VolcanoID":222120,"V_Name":"Lengai, Ol Doinyo","Country":"Tanzania","Region":"Africa and Red Sea","Subregion":"Africa (eastern)","latitude":-2.764,"longitude":35.914,"PEI":3,"H_active":1,"VEI_Holoce":"3","hazard":"2","class":"NULL","risk":"2","field_14":null,"field_15":null}
{"_id":{"$oid":"5d9dec992ebe2da7d4dacfba"},"VolcanoID":222130,"V_Name":"Chyulu Hills","Country":"Kenya","Region":"Africa and Red Sea","Subregion":"Africa (eastern)","latitude":-2.68,"longitude":37.88,"PEI":4,"H_active":1,"VEI_Holoce":"2","hazard":"NULL","class":"U-HHR","risk":"NULL","field_14":null,"field_15":null}
{"_id":{"$oid":"5d9dec992ebe2da7d4dacfbb"},"VolcanoID":222150,"V_Name":"Kilimanjaro","Country":"Tanzania","Region":"Africa and Red Sea","Subregion":"Africa (eastern)","latitude":-3.07,"longitude":37.35,"PEI":4,"H_active":0,"VEI_Holoce":"No confirmed eruptions","hazard":"NULL","class":"U-NHHR","risk":"NULL","field_14":null,"field_15":null}
{"_id":{"$oid":"5d9dec992ebe2da7d4dacfbc"},"VolcanoID":222161,"V_Name":"Igwisi Hills","Country":"Tanzania","Region":"Africa and Red Sea","Subregion":"Africa (eastern)","latitude":-4.891,"longitude":31.93,"PEI":5,"H_active":0,"VEI_Holoce":"No confirmed eruptions","hazard":"NULL","class":"U-NHHR","risk":"NULL","field_14":null,"field_15":null}
{"_id":{"$oid":"5d9dec992ebe2da7d4dacfbd"},"VolcanoID":222163,"V_Name":"SW Usangu Basin","Country":"Tanzania","Region":"Africa and Red Sea","Subregion":"Africa (eastern)","latitude":-8.75,"longitude":33.8,"PEI":5,"H_active":0,"VEI_Holoce":"No confirmed eruptions","hazard":"NULL","class":"U-NHHR","risk":"NULL","field_14":null,"field_15":null}
{"_id":{"$oid":"5d9dec992ebe2da7d4dacfbe"},"VolcanoID":222162,"V_Name":"Unnamed","Country":"Tanzania","Region":"Africa and Red Sea","Subregion":"Africa (eastern)","latitude":-8.624,"longitude":33.583,"PEI":4,"H_active":0,"VEI_Holoce":"No confirmed eruptions","hazard":"NULL","class":"U-NHHR","risk":"NULL","field_14":null,"field_15":null}
{"_id":{"$oid":"5d9dec992ebe2da7d4dacfbf"},"VolcanoID":222160,"V_Name":"Meru","Country":"Tanzania","Region":"Africa and Red Sea","Subregion":"Africa (eastern)","latitude":-3.25,"longitude":36.75,"PEI":5,"H_active":1,"VEI_Holoce":"4","hazard":"NULL","class":"U-HHR","risk":"NULL","field_14":null,"field_15":null}
{"_id":{"$oid":"5d9dec992ebe2da7d4dacfc0"},"VolcanoID":222166,"V_Name":"Rungwe","Country":"Tanzania","Region":"Africa and Red Sea","Subregion":"Africa (eastern)","latitude":-9.13,"longitude":33.67,"PEI":5,"H_active":0,"VEI_Holoce":"5","hazard":"NULL","class":"U-HR","risk":"NULL","field_14":null,"field_15":null}
{"_id":{"$oid":"5d9dec992ebe2da7d4dacfc1"},"VolcanoID":222164,"V_Name":"Ngozi","Country":"Tanzania","Region":"Africa and Red Sea","Subregion":"Africa (eastern)","latitude":-8.97,"longitude":33.57,"PEI":7,"H_active":0,"VEI_Holoce":"5","hazard":"NULL","class":"U-HR","risk":"NULL","field_14":null,"field_15":null}
{"_id":{"$oid":"5d9dec992ebe2da7d4dacfc2"},"VolcanoID":222170,"V_Name":"Kyejo","Country":"Tanzania","Region":"Africa and Red Sea","Subregion":"Africa (eastern)","latitude":-9.23,"longitude":33.78,"PEI":5,"H_active":1,"VEI_Holoce":"2","hazard":"NULL","class":"U-HHR","risk":"NULL","field_14":null,"field_15":null}
{"_id":{"$oid":"5d9dec992ebe2da7d4dacfc3"},"VolcanoID":222165,"V_Name":"Izumbwe-Mpoli","Country":"Tanzania","Region":"Africa and Red Sea","Subregion":"Africa (eastern)","latitude":-8.93,"longitude":33.4,"PEI":7,"H_active":0,"VEI_Holoce":"No confirmed eruptions","hazard":"NULL","class":"U-NHHR","risk":"NULL","field_14":null,"field_15":null}
{"_id":{"$oid":"5d9dec992ebe2da7d4dacfc4"},"VolcanoID":223001,"V_Name":"Fort Portal","Country":"Uganda","Region":"Africa and Red Sea","Subregion":"Africa (central)","latitude":0.7,"longitude":30.25,"PEI":6,"H_active":0,"VEI_Holoce":"Unknown VEI","hazard":"NULL","class":"U-HR","risk":"NULL","field_14":null,"field_15":null}
{"_id":{"$oid":"5d9dec992ebe2da7d4dacfc5"},"VolcanoID":223004,"V_Name":"Bunyaruguru","Country":"Uganda","Region":"Africa and Red Sea","Subregion":"Africa (central)","latitude":-0.2,"longitude":30.08,"PEI":6,"H_active":0,"VEI_Holoce":"No confirmed eruptions","hazard":"NULL","class":"U-NHHR","risk":"NULL","field_14":null,"field_15":null}
{"_id":{"$oid":"5d9dec992ebe2da7d4dacfc6"},"VolcanoID":223030,"V_Name":"Nyiragongo","Country":"DR Congo","Region":"Africa and Red Sea","Subregion":"Africa (central)","latitude":-1.52,"longitude":29.25,"PEI":5,"H_active":1,"VEI_Holoce":"2","hazard":"1","class":"NULL","risk":"2","field_14":null,"field_15":null}
{"_id":{"$oid":"5d9dec992ebe2da7d4dacfc7"},"VolcanoID":223002,"V_Name":"Kyatwa","Country":"Uganda","Region":"Africa and Red Sea","Subregion":"Africa (central)","latitude":0.45,"longitude":30.25,"PEI":6,"H_active":0,"VEI_Holoce":"No confirmed eruptions","hazard":"NULL","class":"U-NHHR","risk":"NULL","field_14":null,"field_15":null}
{"_id":{"$oid":"5d9dec992ebe2da7d4dacfc8"},"VolcanoID":223003,"V_Name":"Katwe-Kikorongo","Country":"Uganda","Region":"Africa and Red Sea","Subregion":"Africa (central)","latitude":-0.08,"longitude":29.92,"PEI":7,"H_active":0,"VEI_Holoce":"No confirmed eruptions","hazard":"NULL","class":"U-NHHR","risk":"NULL","field_14":null,"field_15":null}
{"_id":{"$oid":"5d9dec992ebe2da7d4dacfc9"},"VolcanoID":223020,"V_Name":"Nyamuragira","Country":"DR Congo","Region":"Africa and Red Sea","Subregion":"Africa (central)","latitude":-1.408,"longitude":29.2,"PEI":5,"H_active":1,"VEI_Holoce":"3","hazard":"1","class":"NULL","risk":"2","field_14":null,"field_15":null}
{"_id":{"$oid":"5d9dec992ebe2da7d4dacfca"},"VolcanoID":223005,"V_Name":"Katunga","Country":"Uganda","Region":"Africa and Red Sea","Subregion":"Africa (central)","latitude":-0.471,"longitude":30.191,"PEI":6,"H_active":0,"VEI_Holoce":"No confirmed eruptions","hazard":"NULL","class":"U-NHHR","risk":"NULL","field_14":null,"field_15":null}
{"_id":{"$oid":"5d9dec992ebe2da7d4dacfcb"},"VolcanoID":223040,"V_Name":"Karisimbi","Country":"DR Congo-Rwanda","Region":"Africa and Red Sea","Subregion":"Africa (central)","latitude":-1.5,"longitude":29.45,"PEI":6,"H_active":0,"VEI_Holoce":"Unknown VEI","hazard":"NULL","class":"U-HR","risk":"NULL","field_14":null,"field_15":null}
{"_id":{"$oid":"5d9dec992ebe2da7d4dacfcc"},"VolcanoID":223010,"V_Name":"May-ya-moto","Country":"DR Congo","Region":"Africa and Red Sea","Subregion":"Africa (central)","latitude":-0.93,"longitude":29.33,"PEI":5,"H_active":0,"VEI_Holoce":"No confirmed eruptions","hazard":"NULL","class":"U-NHHR","risk":"NULL","field_14":null,"field_15":null}
{"_id":{"$oid":"5d9dec992ebe2da7d4dacfcd"},"VolcanoID":223060,"V_Name":"Muhavura","Country":"Uganda-Rwanda","Region":"Africa and Red Sea","Subregion":"Africa (central)","latitude":-1.38,"longitude":29.67,"PEI":6,"H_active":0,"VEI_Holoce":"No confirmed eruptions","hazard":"NULL","class":"U-NHHR","risk":"NULL","field_14":null,"field_15":null}
{"_id":{"$oid":"5d9dec992ebe2da7d4dacfce"},"VolcanoID":223070,"V_Name":"Bufumbira","Country":"Uganda","Region":"Africa and Red Sea","Subregion":"Africa (central)","latitude":-1.23,"longitude":29.72,"PEI":7,"H_active":0,"VEI_Holoce":"No confirmed eruptions","hazard":"NULL","class":"U-NHHR","risk":"NULL","field_14":null,"field_15":null}
{"_id":{"$oid":"5d9dec992ebe2da7d4dacfcf"},"VolcanoID":223050,"V_Name":"Visoke","Country":"DR Congo-Rwanda","Region":"Africa and Red Sea","Subregion":"Africa (central)","latitude":-1.47,"longitude":29.492,"PEI":6,"H_active":1,"VEI_Holoce":"1","hazard":"NULL","class":"U-HHR","risk":"NULL","field_14":null,"field_15":null}
{"_id":{"$oid":"5d9dec992ebe2da7d4dacfd0"},"VolcanoID":224002,"V_Name":"San Carlos","Country":"Equatorial Guinea","Region":"Africa and Red Sea","Subregion":"Africa (western)","latitude":3.35,"longitude":8.52,"PEI":2,"H_active":0,"VEI_Holoce":"No confirmed eruptions","hazard":"NULL","class":"U-NHHR","risk":"NULL","field_14":null,"field_15":null}
{"_id":{"$oid":"5d9dec992ebe2da7d4dacfd1"},"VolcanoID":224003,"V_Name":"San Joaquin","Country":"Equatorial Guinea","Region":"Africa and Red Sea","Subregion":"Africa (western)","latitude":3.35,"longitude":8.63,"PEI":2,"H_active":0,"VEI_Holoce":"No confirmed eruptions","hazard":"NULL","class":"U-NHHR","risk":"NULL","field_14":null,"field_15":null}
{"_id":{"$oid":"5d9dec992ebe2da7d4dacfd2"},"VolcanoID":224001,"V_Name":"Sao Tome","Country":"Sao Tome and Principe","Region":"Africa and Red Sea","Subregion":"Africa (western)","latitude":0.2,"longitude":6.58,"PEI":4,"H_active":0,"VEI_Holoce":"No confirmed eruptions","hazard":"NULL","class":"U-NHHR","risk":"NULL","field_14":null,"field_15":null}
{"_id":{"$oid":"5d9dec992ebe2da7d4dacfd3"},"VolcanoID":223080,"V_Name":"Tshibinda","Country":"DR Congo","Region":"Africa and Red Sea","Subregion":"Africa (central)","latitude":-2.32,"longitude":28.75,"PEI":6,"H_active":0,"VEI_Holoce":"No confirmed eruptions","hazard":"NULL","class":"U-NHHR","risk":"NULL","field_14":null,"field_15":null}
{"_id":{"$oid":"5d9dec992ebe2da7d4dacfd4"},"VolcanoID":224011,"V_Name":"Tombel Graben","Country":"Cameroon","Region":"Africa and Red Sea","Subregion":"Africa (western)","latitude":4.75,"longitude":9.67,"PEI":6,"H_active":0,"VEI_Holoce":"No confirmed eruptions","hazard":"NULL","class":"U-NHHR","risk":"NULL","field_14":null,"field_15":null}
{"_id":{"$oid":"5d9dec992ebe2da7d4dacfd5"},"VolcanoID":224010,"V_Name":"Cameroon","Country":"Cameroon","Region":"Africa and Red Sea","Subregion":"Africa (western)","latitude":4.203,"longitude":9.17,"PEI":5,"H_active":1,"VEI_Holoce":"3","hazard":"1","class":"NULL","risk":"2","field_14":null,"field_15":null}
{"_id":{"$oid":"5d9dec992ebe2da7d4dacfd6"},"VolcanoID":224004,"V_Name":"Santa Isabel","Country":"Equatorial Guinea","Region":"Africa and Red Sea","Subregion":"Africa (western)","latitude":3.58,"longitude":8.75,"PEI":5,"H_active":1,"VEI_Holoce":"Unknown VEI","hazard":"NULL","class":"U-HHR","risk":"NULL","field_14":null,"field_15":null}
{"_id":{"$oid":"5d9dec992ebe2da7d4dacfd7"},"VolcanoID":224030,"V_Name":"Oku Volcanic Field","Country":"Cameroon","Region":"Africa and Red Sea","Subregion":"Africa (western)","latitude":6.25,"longitude":10.5,"PEI":6,"H_active":0,"VEI_Holoce":"No confirmed eruptions","hazard":"NULL","class":"U-NHHR","risk":"NULL","field_14":null,"field_15":null}
{"_id":{"$oid":"5d9dec992ebe2da7d4dacfd8"},"VolcanoID":224040,"V_Name":"Ngaoundere Plateau","Country":"Cameroon","Region":"Africa and Red Sea","Subregion":"Africa (western)","latitude":7.25,"longitude":13.67,"PEI":5,"H_active":0,"VEI_Holoce":"No confirmed eruptions","hazard":"NULL","class":"U-NHHR","risk":"NULL","field_14":null,"field_15":null}
{"_id":{"$oid":"5d9dec992ebe2da7d4dacfd9"},"VolcanoID":224020,"V_Name":"Manengouba","Country":"Cameroon","Region":"Africa and Red Sea","Subregion":"Africa (western)","latitude":5.03,"longitude":9.83,"PEI":5,"H_active":0,"VEI_Holoce":"No confirmed eruptions","hazard":"NULL","class":"U-NHHR","risk":"NULL","field_14":null,"field_15":null}
{"_id":{"$oid":"5d9dec992ebe2da7d4dacfda"},"VolcanoID":224050,"V_Name":"Biu Plateau","Country":"Nigeria","Region":"Africa and Red Sea","Subregion":"Africa (western)","latitude":10.75,"longitude":12,"PEI":5,"H_active":0,"VEI_Holoce":"No confirmed eruptions","hazard":"NULL","class":"U-NHHR","risk":"NULL","field_14":null,"field_15":null}
{"_id":{"$oid":"5d9dec992ebe2da7d4dacfdb"},"VolcanoID":225002,"V_Name":"Tin Zaouatene Volcanic Field","Country":"Mali","Region":"Africa and Red Sea","Subregion":"Africa (northern)","latitude":19.83,"longitude":2.83,"PEI":2,"H_active":0,"VEI_Holoce":"No confirmed eruptions","hazard":"NULL","class":"U-NHHR","risk":"NULL","field_14":null,"field_15":null}
{"_id":{"$oid":"5d9dec992ebe2da7d4dacfdc"},"VolcanoID":225001,"V_Name":"Todra Volcanic Field","Country":"Niger","Region":"Africa and Red Sea","Subregion":"Africa (northern)","latitude":17.68,"longitude":8.5,"PEI":2,"H_active":0,"VEI_Holoce":"No confirmed eruptions","hazard":"NULL","class":"U-NHHR","risk":"NULL","field_14":null,"field_15":null}
{"_id":{"$oid":"5d9dec992ebe2da7d4dacfdd"},"VolcanoID":225005,"V_Name":"Atakor Volcanic Field","Country":"Algeria","Region":"Africa and Red Sea","Subregion":"Africa (northern)","latitude":23.33,"longitude":5.83,"PEI":2,"H_active":0,"VEI_Holoce":"No confirmed eruptions","hazard":"NULL","class":"U-NHHR","risk":"NULL","field_14":null,"field_15":null}
{"_id":{"$oid":"5d9dec992ebe2da7d4dacfde"},"VolcanoID":225003,"V_Name":"In Ezzane Volcanic Field","Country":"Algeria-Niger","Region":"Africa and Red Sea","Subregion":"Africa (northern)","latitude":23,"longitude":10.83,"PEI":2,"H_active":0,"VEI_Holoce":"No confirmed eruptions","hazard":"NULL","class":"U-NHHR","risk":"NULL","field_14":null,"field_15":null}
{"_id":{"$oid":"5d9dec992ebe2da7d4dacfdf"},"VolcanoID":225006,"V_Name":"Manzaz Volcanic Field","Country":"Algeria","Region":"Africa and Red Sea","Subregion":"Africa (northern)","latitude":23.92,"longitude":5.83,"PEI":2,"H_active":0,"VEI_Holoce":"No confirmed eruptions","hazard":"NULL","class":"U-NHHR","risk":"NULL","field_14":null,"field_15":null}
{"_id":{"$oid":"5d9dec992ebe2da7d4dacfe0"},"VolcanoID":225004,"V_Name":"Tahalra Volcanic Field","Country":"Algeria","Region":"Africa and Red Sea","Subregion":"Africa (northern)","latitude":22.67,"longitude":5,"PEI":2,"H_active":0,"VEI_Holoce":"No confirmed eruptions","hazard":"NULL","class":"U-NHHR","risk":"NULL","field_14":null,"field_15":null}
{"_id":{"$oid":"5d9dec992ebe2da7d4dacfe1"},"VolcanoID":225007,"V_Name":"Haruj","Country":"Libya","Region":"Africa and Red Sea","Subregion":"Africa (northern)","latitude":27.25,"longitude":17.5,"PEI":2,"H_active":0,"VEI_Holoce":"No confirmed eruptions","hazard":"NULL","class":"U-NHHR","risk":"NULL","field_14":null,"field_15":null}
{"_id":{"$oid":"5d9dec992ebe2da7d4dacfe2"},"VolcanoID":225008,"V_Name":"Wau-en-Namus","Country":"Libya","Region":"Africa and Red Sea","Subregion":"Africa (northern)","latitude":25.05,"longitude":17.55,"PEI":2,"H_active":0,"VEI_Holoce":"No confirmed eruptions","hazard":"NULL","class":"U-NHHR","risk":"NULL","field_14":null,"field_15":null}
{"_id":{"$oid":"5d9dec992ebe2da7d4dacfe3"},"VolcanoID":225009,"V_Name":"T?h, Tarso","Country":"Chad","Region":"Africa and Red Sea","Subregion":"Africa (northern)","latitude":21.33,"longitude":16.33,"PEI":2,"H_active":0,"VEI_Holoce":"No confirmed eruptions","hazard":"NULL","class":"U-NHHR","risk":"NULL","field_14":null,"field_15":null}
{"_id":{"$oid":"5d9dec992ebe2da7d4dacfe4"},"VolcanoID":225020,"V_Name":"Voon, Tarso","Country":"Chad","Region":"Africa and Red Sea","Subregion":"Africa (northern)","latitude":20.92,"longitude":17.28,"PEI":2,"H_active":0,"VEI_Holoce":"No confirmed eruptions","hazard":"NULL","class":"U-NHHR","risk":"NULL","field_14":null,"field_15":null}
{"_id":{"$oid":"5d9dec992ebe2da7d4dacfe5"},"VolcanoID":225010,"V_Name":"Toussid?, Tarso","Country":"Chad","Region":"Africa and Red Sea","Subregion":"Africa (northern)","latitude":21.03,"longitude":16.45,"PEI":2,"H_active":0,"VEI_Holoce":"No confirmed eruptions","hazard":"NULL","class":"U-NHHR","risk":"NULL","field_14":null,"field_15":null}
{"_id":{"$oid":"5d9dec992ebe2da7d4dacfe6"},"VolcanoID":225021,"V_Name":"Koussi, Emi","Country":"Chad","Region":"Africa and Red Sea","Subregion":"Africa (northern)","latitude":19.8,"longitude":18.53,"PEI":2,"H_active":0,"VEI_Holoce":"No confirmed eruptions","hazard":"NULL","class":"U-NHHR","risk":"NULL","field_14":null,"field_15":null}
{"_id":{"$oid":"5d9dec992ebe2da7d4dacfe7"},"VolcanoID":225030,"V_Name":"Marra, Jebel","Country":"Sudan","Region":"Africa and Red Sea","Subregion":"Africa (northern)","latitude":12.95,"longitude":24.27,"PEI":4,"H_active":0,"VEI_Holoce":"4","hazard":"NULL","class":"U-HR","risk":"NULL","field_14":null,"field_15":null}
{"_id":{"$oid":"5d9dec992ebe2da7d4dacfe8"},"VolcanoID":225040,"V_Name":"Kutum Volcanic Field","Country":"Sudan","Region":"Africa and Red Sea","Subregion":"Africa (northern)","latitude":14.57,"longitude":25.85,"PEI":4,"H_active":0,"VEI_Holoce":"No confirmed eruptions","hazard":"NULL","class":"U-NHHR","risk":"NULL","field_14":null,"field_15":null}
{"_id":{"$oid":"5d9dec992ebe2da7d4dacfe9"},"VolcanoID":225070,"V_Name":"Umm Arafieb, Jebel","Country":"Sudan","Region":"Africa and Red Sea","Subregion":"Africa (northern)","latitude":18.17,"longitude":33.83,"PEI":5,"H_active":0,"VEI_Holoce":"No confirmed eruptions","hazard":"NULL","class":"U-NHHR","risk":"NULL","field_14":null,"field_15":null}
{"_id":{"$oid":"5d9dec992ebe2da7d4dacfea"},"VolcanoID":230020,"V_Name":"Unnamed","Country":"Syria","Region":"Middle East and Indian Ocean","Subregion":"Middle East (eastern)","latitude":36.67,"longitude":37,"PEI":6,"H_active":0,"VEI_Holoce":"0","hazard":"NULL","class":"U-HR","risk":"NULL","field_14":null,"field_15":null}
{"_id":{"$oid":"5d9dec992ebe2da7d4dacfeb"},"VolcanoID":225060,"V_Name":"Bayuda Volcanic Field","Country":"Sudan","Region":"Africa and Red Sea","Subregion":"Africa (northern)","latitude":18.33,"longitude":32.75,"PEI":2,"H_active":0,"VEI_Holoce":"Unknown VEI","hazard":"NULL","class":"U-HR","risk":"NULL","field_14":null,"field_15":null}
{"_id":{"$oid":"5d9dec992ebe2da7d4dacfec"},"VolcanoID":230030,"V_Name":"Golan Heights","Country":"Syria","Region":"Middle East and Indian Ocean","Subregion":"Middle East (eastern)","latitude":33.1,"longitude":35.97,"PEI":7,"H_active":0,"VEI_Holoce":"No confirmed eruptions","hazard":"NULL","class":"U-NHHR","risk":"NULL","field_14":null,"field_15":null}
{"_id":{"$oid":"5d9dec992ebe2da7d4dacfed"},"VolcanoID":230010,"V_Name":"Sharat Kovakab","Country":"Syria","Region":"Middle East and Indian Ocean","Subregion":"Middle East (eastern)","latitude":36.53,"longitude":40.85,"PEI":6,"H_active":0,"VEI_Holoce":"No confirmed eruptions","hazard":"NULL","class":"U-NHHR","risk":"NULL","field_14":null,"field_15":null}
{"_id":{"$oid":"5d9dec992ebe2da7d4dacfee"},"VolcanoID":230050,"V_Name":"Es Safa","Country":"Syria","Region":"Middle East and Indian Ocean","Subregion":"Middle East (eastern)","latitude":33.25,"longitude":37.07,"PEI":6,"H_active":1,"VEI_Holoce":"0","hazard":"NULL","class":"U-HHR","risk":"NULL","field_14":null,"field_15":null}
{"_id":{"$oid":"5d9dec992ebe2da7d4dacfef"},"VolcanoID":230040,"V_Name":"Unnamed","Country":"Syria","Region":"Middle East and Indian Ocean","Subregion":"Middle East (eastern)","latitude":33,"longitude":36.63,"PEI":6,"H_active":0,"VEI_Holoce":"Unknown VEI","hazard":"NULL","class":"U-HR","risk":"NULL","field_14":null,"field_15":null}
{"_id":{"$oid":"5d9dec992ebe2da7d4dacff0"},"VolcanoID":225050,"V_Name":"Meidob Volcanic Field","Country":"Sudan","Region":"Africa and Red Sea","Subregion":"Africa (northern)","latitude":15.32,"longitude":26.47,"PEI":3,"H_active":0,"VEI_Holoce":"4","hazard":"3","class":"NULL","risk":"2","field_14":null,"field_15":null}
{"_id":{"$oid":"5d9dec992ebe2da7d4dacff1"},"VolcanoID":230060,"V_Name":"Druze, Jabal ad","Country":"Syria","Region":"Middle East and Indian Ocean","Subregion":"Middle East (eastern)","latitude":32.658,"longitude":36.425,"PEI":7,"H_active":0,"VEI_Holoce":"No confirmed eruptions","hazard":"NULL","class":"U-NHHR","risk":"NULL","field_14":null,"field_15":null}
{"_id":{"$oid":"5d9dec992ebe2da7d4dacff2"},"VolcanoID":231020,"V_Name":"'Uwayrid, Harrat","Country":"Saudi Arabia","Region":"Middle East and Indian Ocean","Subregion":"Middle East (southern)","latitude":27.08,"longitude":37.25,"PEI":2,"H_active":0,"VEI_Holoce":"2","hazard":"NULL","class":"U-HR","risk":"NULL","field_14":null,"field_15":null}
{"_id":{"$oid":"5d9dec992ebe2da7d4dacff3"},"VolcanoID":231001,"V_Name":"Harrah, Al","Country":"Saudi Arabia","Region":"Middle East and Indian Ocean","Subregion":"Middle East (eastern)","latitude":31.08,"longitude":38.42,"PEI":6,"H_active":0,"VEI_Holoce":"No confirmed eruptions","hazard":"NULL","class":"U-NHHR","risk":"NULL","field_14":null,"field_15":null}
{"_id":{"$oid":"5d9dec992ebe2da7d4dacff4"},"VolcanoID":231060,"V_Name":"Khaybar, Harrat","Country":"Saudi Arabia","Region":"Middle East and Indian Ocean","Subregion":"Middle East (southern)","latitude":25,"longitude":39.92,"PEI":4,"H_active":0,"VEI_Holoce":"2","hazard":"NULL","class":"U-HR","risk":"NULL","field_14":null,"field_15":null}
{"_id":{"$oid":"5d9dec992ebe2da7d4dacff5"},"VolcanoID":232000,"V_Name":"Unnamed","Country":"Iran-Azerbaijan","Region":"Middle East and Indian Ocean","Subregion":"Middle East (eastern)","latitude":39.25,"longitude":45.17,"PEI":5,"H_active":0,"VEI_Holoce":"No confirmed eruptions","hazard":"NULL","class":"U-NHHR","risk":"NULL","field_14":null,"field_15":null}
{"_id":{"$oid":"5d9dec992ebe2da7d4dacff6"},"VolcanoID":231010,"V_Name":"Rahah, Harrat ar","Country":"Saudi Arabia","Region":"Middle East and Indian Ocean","Subregion":"Middle East (southern)","latitude":27.8,"longitude":36.17,"PEI":2,"H_active":0,"VEI_Holoce":"No confirmed eruptions","hazard":"NULL","class":"U-NHHR","risk":"NULL","field_14":null,"field_15":null}
{"_id":{"$oid":"5d9dec992ebe2da7d4dacff7"},"VolcanoID":231180,"V_Name":"Bir Borhut","Country":"Yemen","Region":"Middle East and Indian Ocean","Subregion":"Middle East (southern)","latitude":15.55,"longitude":50.63,"PEI":2,"H_active":0,"VEI_Holoce":"No confirmed eruptions","hazard":"NULL","class":"U-NHHR","risk":"NULL","field_14":null,"field_15":null}
{"_id":{"$oid":"5d9dec992ebe2da7d4dacff8"},"VolcanoID":232001,"V_Name":"Sahand","Country":"Iran","Region":"Middle East and Indian Ocean","Subregion":"Middle East (eastern)","latitude":37.75,"longitude":46.43,"PEI":4,"H_active":0,"VEI_Holoce":"No confirmed eruptions","hazard":"NULL","class":"U-NHHR","risk":"NULL","field_14":null,"field_15":null}
{"_id":{"$oid":"5d9dec992ebe2da7d4dacff9"},"VolcanoID":231071,"V_Name":"Kishb, Harrat","Country":"Saudi Arabia","Region":"Middle East and Indian Ocean","Subregion":"Middle East (southern)","latitude":22.8,"longitude":41.38,"PEI":3,"H_active":0,"VEI_Holoce":"No confirmed eruptions","hazard":"NULL","class":"U-NHHR","risk":"NULL","field_14":null,"field_15":null}
{"_id":{"$oid":"5d9dec992ebe2da7d4dacffa"},"VolcanoID":231070,"V_Name":"Rahat, Harrat","Country":"Saudi Arabia","Region":"Middle East and Indian Ocean","Subregion":"Middle East (southern)","latitude":23.08,"longitude":39.78,"PEI":7,"H_active":0,"VEI_Holoce":"3","hazard":"NULL","class":"U-HR","risk":"NULL","field_14":null,"field_15":null}
{"_id":{"$oid":"5d9dec992ebe2da7d4dacffb"},"VolcanoID":231110,"V_Name":"Haylan, Jabal","Country":"Yemen","Region":"Middle East and Indian Ocean","Subregion":"Middle East (southern)","latitude":15.43,"longitude":44.78,"PEI":6,"H_active":0,"VEI_Holoce":"0","hazard":"NULL","class":"U-HR","risk":"NULL","field_14":null,"field_15":null}
{"_id":{"$oid":"5d9dec992ebe2da7d4dacffc"},"VolcanoID":231160,"V_Name":"Saw?d, Harra es-","Country":"Yemen","Region":"Middle East and Indian Ocean","Subregion":"Middle East (southern)","latitude":13.58,"longitude":46.12,"PEI":5,"H_active":0,"VEI_Holoce":"3","hazard":"NULL","class":"U-HR","risk":"NULL","field_14":null,"field_15":null}
{"_id":{"$oid":"5d9dec992ebe2da7d4dacffd"},"VolcanoID":231072,"V_Name":"Birk, Harrat al","Country":"Saudi Arabia","Region":"Middle East and Indian Ocean","Subregion":"Middle East (southern)","latitude":18.37,"longitude":41.63,"PEI":5,"H_active":0,"VEI_Holoce":"No confirmed eruptions","hazard":"NULL","class":"U-NHHR","risk":"NULL","field_14":null,"field_15":null}
{"_id":{"$oid":"5d9dec992ebe2da7d4dacffe"},"VolcanoID":231090,"V_Name":"Arhab, Harra of","Country":"Yemen","Region":"Middle East and Indian Ocean","Subregion":"Middle East (southern)","latitude":15.63,"longitude":44.08,"PEI":7,"H_active":0,"VEI_Holoce":"2","hazard":"NULL","class":"U-HR","risk":"NULL","field_14":null,"field_15":null}
{"_id":{"$oid":"5d9dec992ebe2da7d4dacfff"},"VolcanoID":231150,"V_Name":"Unnamed","Country":"Yemen","Region":"Middle East and Indian Ocean","Subregion":"Middle East (southern)","latitude":12.25,"longitude":45,"PEI":2,"H_active":0,"VEI_Holoce":"No confirmed eruptions","hazard":"NULL","class":"U-NHHR","risk":"NULL","field_14":null,"field_15":null}
{"_id":{"$oid":"5d9dec992ebe2da7d4dad000"},"VolcanoID":231170,"V_Name":"Bal Haf, Harra of","Country":"Yemen","Region":"Middle East and Indian Ocean","Subregion":"Middle East (southern)","latitude":14.05,"longitude":48.33,"PEI":3,"H_active":0,"VEI_Holoce":"No confirmed eruptions","hazard":"NULL","class":"U-NHHR","risk":"NULL","field_14":null,"field_15":null}
{"_id":{"$oid":"5d9dec992ebe2da7d4dad001"},"VolcanoID":231080,"V_Name":"Yar, Jabal","Country":"Saudi Arabia","Region":"Middle East and Indian Ocean","Subregion":"Middle East (southern)","latitude":17.05,"longitude":42.83,"PEI":6,"H_active":1,"VEI_Holoce":"2","hazard":"NULL","class":"U-HHR","risk":"NULL","field_14":null,"field_15":null}
{"_id":{"$oid":"5d9dec992ebe2da7d4dad002"},"VolcanoID":231040,"V_Name":"Lunayyir, Harrat","Country":"Saudi Arabia","Region":"Middle East and Indian Ocean","Subregion":"Middle East (southern)","latitude":25.17,"longitude":37.75,"PEI":2,"H_active":0,"VEI_Holoce":"Unknown VEI","hazard":"NULL","class":"U-HR","risk":"NULL","field_14":null,"field_15":null}
{"_id":{"$oid":"5d9dec992ebe2da7d4dad003"},"VolcanoID":231100,"V_Name":"Marha, Jabal el-","Country":"Yemen","Region":"Middle East and Indian Ocean","Subregion":"Middle East (southern)","latitude":15.245,"longitude":44.236,"PEI":6,"H_active":0,"VEI_Holoce":"No confirmed eruptions","hazard":"NULL","class":"U-NHHR","risk":"NULL","field_14":null,"field_15":null}
{"_id":{"$oid":"5d9dec992ebe2da7d4dad004"},"VolcanoID":231050,"V_Name":"Ithnayn, Harrat","Country":"Saudi Arabia","Region":"Middle East and Indian Ocean","Subregion":"Middle East (southern)","latitude":26.58,"longitude":40.2,"PEI":3,"H_active":0,"VEI_Holoce":"No confirmed eruptions","hazard":"NULL","class":"U-NHHR","risk":"NULL","field_14":null,"field_15":null}
{"_id":{"$oid":"5d9dec992ebe2da7d4dad005"},"VolcanoID":231120,"V_Name":"Dhamar, Harras of","Country":"Yemen","Region":"Middle East and Indian Ocean","Subregion":"Middle East (southern)","latitude":14.57,"longitude":44.67,"PEI":7,"H_active":1,"VEI_Holoce":"2","hazard":"NULL","class":"U-HHR","risk":"NULL","field_14":null,"field_15":null}
{"_id":{"$oid":"5d9dec992ebe2da7d4dad006"},"VolcanoID":232002,"V_Name":"Sabalan","Country":"Iran","Region":"Middle East and Indian Ocean","Subregion":"Middle East (eastern)","latitude":38.25,"longitude":47.92,"PEI":3,"H_active":0,"VEI_Holoce":"No confirmed eruptions","hazard":"NULL","class":"U-NHHR","risk":"NULL","field_14":null,"field_15":null}
{"_id":{"$oid":"5d9dec992ebe2da7d4dad007"},"VolcanoID":232010,"V_Name":"Damavand","Country":"Iran","Region":"Middle East and Indian Ocean","Subregion":"Middle East (eastern)","latitude":35.951,"longitude":52.109,"PEI":5,"H_active":0,"VEI_Holoce":"0","hazard":"NULL","class":"U-HR","risk":"NULL","field_14":null,"field_15":null}
{"_id":{"$oid":"5d9dec992ebe2da7d4dad008"},"VolcanoID":232020,"V_Name":"Qal'eh Hasan Ali","Country":"Iran","Region":"Middle East and Indian Ocean","Subregion":"Middle East (western)","latitude":29.4,"longitude":57.57,"PEI":3,"H_active":0,"VEI_Holoce":"No confirmed eruptions","hazard":"NULL","class":"U-NHHR","risk":"NULL","field_14":null,"field_15":null}
{"_id":{"$oid":"5d9dec992ebe2da7d4dad009"},"VolcanoID":233015,"V_Name":"Ankaratra Field","Country":"Madagascar","Region":"Middle East and Indian Ocean","Subregion":"Indian Ocean (western)","latitude":-19.4,"longitude":47.2,"PEI":6,"H_active":0,"VEI_Holoce":"No confirmed eruptions","hazard":"NULL","class":"U-NHHR","risk":"NULL","field_14":null,"field_15":null}
{"_id":{"$oid":"5d9dec992ebe2da7d4dad00a"},"VolcanoID":233020,"V_Name":"Fournaise, Piton de la","Country":"France","Region":"Middle East and Indian Ocean","Subregion":"Indian Ocean (western)","latitude":-21.231,"longitude":55.713,"PEI":5,"H_active":1,"VEI_Holoce":"5","hazard":"2","class":"NULL","risk":"2","field_14":null,"field_15":null}
{"_id":{"$oid":"5d9dec992ebe2da7d4dad00b"},"VolcanoID":232060,"V_Name":"Dacht-i-Navar Group","Country":"Afghanistan","Region":"Middle East and Indian Ocean","Subregion":"Middle East (western)","latitude":33.95,"longitude":67.92,"PEI":5,"H_active":0,"VEI_Holoce":"No confirmed eruptions","hazard":"NULL","class":"U-NHHR","risk":"NULL","field_14":null,"field_15":null}
{"_id":{"$oid":"5d9dec992ebe2da7d4dad00c"},"VolcanoID":234000,"V_Name":"Boomerang Seamount","Country":"France","Region":"Middle East and Indian Ocean","Subregion":"Indian Ocean (southern)","latitude":-37.721,"longitude":77.825,"PEI":1,"H_active":1,"VEI_Holoce":"0","hazard":"NULL","class":"U-HHR","risk":"NULL","field_14":null,"field_15":null}
{"_id":{"$oid":"5d9dec992ebe2da7d4dad00d"},"VolcanoID":234001,"V_Name":"Amsterdam Island","Country":"France","Region":"Middle East and Indian Ocean","Subregion":"Indian Ocean (southern)","latitude":-37.83,"longitude":77.52,"PEI":1,"H_active":0,"VEI_Holoce":"No confirmed eruptions","hazard":"NULL","class":"U-NHHR","risk":"NULL","field_14":null,"field_15":null}
{"_id":{"$oid":"5d9dec992ebe2da7d4dad00e"},"VolcanoID":232040,"V_Name":"Unnamed","Country":"Iran","Region":"Middle East and Indian Ocean","Subregion":"Middle East (western)","latitude":28.17,"longitude":60.67,"PEI":3,"H_active":0,"VEI_Holoce":"No confirmed eruptions","hazard":"NULL","class":"U-NHHR","risk":"NULL","field_14":null,"field_15":null}
{"_id":{"$oid":"5d9dec992ebe2da7d4dad00f"},"VolcanoID":232050,"V_Name":"Taftan","Country":"Iran","Region":"Middle East and Indian Ocean","Subregion":"Middle East (western)","latitude":28.6,"longitude":61.13,"PEI":2,"H_active":0,"VEI_Holoce":"No confirmed eruptions","hazard":"NULL","class":"U-NHHR","risk":"NULL","field_14":null,"field_15":null}
{"_id":{"$oid":"5d9dec992ebe2da7d4dad010"},"VolcanoID":233010,"V_Name":"Karthala","Country":"Comoros","Region":"Middle East and Indian Ocean","Subregion":"Indian Ocean (western)","latitude":-11.75,"longitude":43.38,"PEI":6,"H_active":1,"VEI_Holoce":"3","hazard":"1","class":"NULL","risk":"2","field_14":null,"field_15":null}
{"_id":{"$oid":"5d9dec992ebe2da7d4dad011"},"VolcanoID":232070,"V_Name":"Vakak Group","Country":"Afghanistan","Region":"Middle East and Indian Ocean","Subregion":"Middle East (western)","latitude":34.25,"longitude":67.97,"PEI":5,"H_active":0,"VEI_Holoce":"No confirmed eruptions","hazard":"NULL","class":"U-NHHR","risk":"NULL","field_14":null,"field_15":null}
{"_id":{"$oid":"5d9dec992ebe2da7d4dad012"},"VolcanoID":233011,"V_Name":"Ambre-Bobaomby","Country":"Madagascar","Region":"Middle East and Indian Ocean","Subregion":"Indian Ocean (western)","latitude":-12.6,"longitude":49.15,"PEI":4,"H_active":0,"VEI_Holoce":"No confirmed eruptions","hazard":"NULL","class":"U-NHHR","risk":"NULL","field_14":null,"field_15":null}
{"_id":{"$oid":"5d9dec992ebe2da7d4dad013"},"VolcanoID":233005,"V_Name":"Mayotte Island","Country":"France","Region":"Middle East and Indian Ocean","Subregion":"Indian Ocean (western)","latitude":-12.83,"longitude":45.17,"PEI":1,"H_active":0,"VEI_Holoce":"Unknown VEI","hazard":"NULL","class":"U-HR","risk":"NULL","field_14":null,"field_15":null}
{"_id":{"$oid":"5d9dec992ebe2da7d4dad014"},"VolcanoID":232080,"V_Name":"Tor Zawar","Country":"Pakistan","Region":"Middle East and Indian Ocean","Subregion":"Middle East (western)","latitude":30.479,"longitude":67.492,"PEI":1,"H_active":1,"VEI_Holoce":"0","hazard":"NULL","class":"U-HHR","risk":"NULL","field_14":null,"field_15":null}
{"_id":{"$oid":"5d9dec992ebe2da7d4dad015"},"VolcanoID":234011,"V_Name":"McDonald Islands","Country":"Australia","Region":"Middle East and Indian Ocean","Subregion":"Indian Ocean (southern)","latitude":-53.03,"longitude":72.6,"PEI":1,"H_active":1,"VEI_Holoce":"1","hazard":"1","class":"NULL","risk":"1","field_14":null,"field_15":null}
{"_id":{"$oid":"5d9dec992ebe2da7d4dad016"},"VolcanoID":233013,"V_Name":"Ankaizina Field","Country":"Madagascar","Region":"Middle East and Indian Ocean","Subregion":"Indian Ocean (western)","latitude":-14.3,"longitude":48.67,"PEI":4,"H_active":0,"VEI_Holoce":"No confirmed eruptions","hazard":"NULL","class":"U-NHHR","risk":"NULL","field_14":null,"field_15":null}
{"_id":{"$oid":"5d9dec992ebe2da7d4dad017"},"VolcanoID":234010,"V_Name":"Heard","Country":"Australia","Region":"Middle East and Indian Ocean","Subregion":"Indian Ocean (southern)","latitude":-53.106,"longitude":73.513,"PEI":1,"H_active":1,"VEI_Holoce":"2","hazard":"1","class":"NULL","risk":"1","field_14":null,"field_15":null}
{"_id":{"$oid":"5d9dec992ebe2da7d4dad018"},"VolcanoID":232030,"V_Name":"Bazman","Country":"Iran","Region":"Middle East and Indian Ocean","Subregion":"Middle East (western)","latitude":28.07,"longitude":60,"PEI":2,"H_active":0,"VEI_Holoce":"No confirmed eruptions","hazard":"NULL","class":"U-NHHR","risk":"NULL","field_14":null,"field_15":null}
{"_id":{"$oid":"5d9dec992ebe2da7d4dad019"},"VolcanoID":234020,"V_Name":"Kerguelen Islands","Country":"France","Region":"Middle East and Indian Ocean","Subregion":"Indian Ocean (southern)","latitude":-49.58,"longitude":69.5,"PEI":1,"H_active":0,"VEI_Holoce":"No confirmed eruptions","hazard":"NULL","class":"U-NHHR","risk":"NULL","field_14":null,"field_15":null}
{"_id":{"$oid":"5d9dec992ebe2da7d4dad01a"},"VolcanoID":234040,"V_Name":"Possession, Ile de la","Country":"France","Region":"Middle East and Indian Ocean","Subregion":"Indian Ocean (southern)","latitude":-46.42,"longitude":51.75,"PEI":1,"H_active":0,"VEI_Holoce":"No confirmed eruptions","hazard":"NULL","class":"U-NHHR","risk":"NULL","field_14":null,"field_15":null}
{"_id":{"$oid":"5d9dec992ebe2da7d4dad01b"},"VolcanoID":234060,"V_Name":"Prince Edward Island","Country":"South Africa","Region":"Middle East and Indian Ocean","Subregion":"Indian Ocean (southern)","latitude":-46.63,"longitude":37.95,"PEI":1,"H_active":0,"VEI_Holoce":"No confirmed eruptions","hazard":"NULL","class":"U-NHHR","risk":"NULL","field_14":null,"field_15":null}
{"_id":{"$oid":"5d9dec992ebe2da7d4dad01c"},"VolcanoID":234050,"V_Name":"Cochons, Ile aux","Country":"France","Region":"Middle East and Indian Ocean","Subregion":"Indian Ocean (southern)","latitude":-46.1,"longitude":50.23,"PEI":1,"H_active":0,"VEI_Holoce":"No confirmed eruptions","hazard":"NULL","class":"U-NHHR","risk":"NULL","field_14":null,"field_15":null}
{"_id":{"$oid":"5d9dec992ebe2da7d4dad01d"},"VolcanoID":235010,"V_Name":"Unnamed","Country":"India","Region":"Middle East and Indian Ocean","Subregion":"Indian Ocean (eastern)","latitude":11.75,"longitude":80.75,"PEI":2,"H_active":0,"VEI_Holoce":"No confirmed eruptions","hazard":"NULL","class":"U-NHHR","risk":"NULL","field_14":null,"field_15":null}
{"_id":{"$oid":"5d9dec992ebe2da7d4dad01e"},"VolcanoID":241010,"V_Name":"Kaikohe-Bay of Islands","Country":"New Zealand","Region":"New Zealand to Fiji","Subregion":"New Zealand","latitude":-35.3,"longitude":173.9,"PEI":4,"H_active":0,"VEI_Holoce":"Unknown VEI","hazard":"NULL","class":"U-HR","risk":"NULL","field_14":null,"field_15":null}
{"_id":{"$oid":"5d9dec992ebe2da7d4dad01f"},"VolcanoID":241011,"V_Name":"Whangarei","Country":"New Zealand","Region":"New Zealand to Fiji","Subregion":"New Zealand","latitude":-35.75,"longitude":174.27,"PEI":5,"H_active":0,"VEI_Holoce":"No confirmed eruptions","hazard":"NULL","class":"U-NHHR","risk":"NULL","field_14":null,"field_15":null}
{"_id":{"$oid":"5d9dec992ebe2da7d4dad020"},"VolcanoID":233012,"V_Name":"Nosy-Be","Country":"Madagascar","Region":"Middle East and Indian Ocean","Subregion":"Indian Ocean (western)","latitude":-13.32,"longitude":48.48,"PEI":4,"H_active":0,"VEI_Holoce":"No confirmed eruptions","hazard":"NULL","class":"U-NHHR","risk":"NULL","field_14":null,"field_15":null}
{"_id":{"$oid":"5d9dec992ebe2da7d4dad021"},"VolcanoID":241021,"V_Name":"Mayor Island","Country":"New Zealand","Region":"New Zealand to Fiji","Subregion":"New Zealand","latitude":-37.28,"longitude":176.25,"PEI":2,"H_active":0,"VEI_Holoce":"5","hazard":"NULL","class":"U-HR","risk":"NULL","field_14":null,"field_15":null}
{"_id":{"$oid":"5d9dec992ebe2da7d4dad022"},"VolcanoID":233001,"V_Name":"Grille, La","Country":"Comoros","Region":"Middle East and Indian Ocean","Subregion":"Indian Ocean (western)","latitude":-11.47,"longitude":43.33,"PEI":6,"H_active":0,"VEI_Holoce":"No confirmed eruptions","hazard":"NULL","class":"U-NHHR","risk":"NULL","field_14":null,"field_15":null}
{"_id":{"$oid":"5d9dec992ebe2da7d4dad023"},"VolcanoID":241040,"V_Name":"White Island","Country":"New Zealand","Region":"New Zealand to Fiji","Subregion":"New Zealand","latitude":-37.52,"longitude":177.18,"PEI":2,"H_active":1,"VEI_Holoce":"3","hazard":"1","class":"NULL","risk":"1","field_14":null,"field_15":null}
{"_id":{"$oid":"5d9dec992ebe2da7d4dad024"},"VolcanoID":241030,"V_Name":"Taranaki Egmont","Country":"New Zealand","Region":"New Zealand to Fiji","Subregion":"New Zealand","latitude":-39.3,"longitude":174.07,"PEI":2,"H_active":1,"VEI_Holoce":"5","hazard":"NULL","class":"U-HHR","risk":"NULL","field_14":null,"field_15":null}
{"_id":{"$oid":"5d9dec992ebe2da7d4dad025"},"VolcanoID":241070,"V_Name":"Taupo","Country":"New Zealand","Region":"New Zealand to Fiji","Subregion":"New Zealand","latitude":-38.82,"longitude":176,"PEI":4,"H_active":0,"VEI_Holoce":"6","hazard":"3","class":"NULL","risk":"3","field_14":null,"field_15":null}
{"_id":{"$oid":"5d9dec992ebe2da7d4dad026"},"VolcanoID":241050,"V_Name":"Okataina","Country":"New Zealand","Region":"New Zealand to Fiji","Subregion":"New Zealand","latitude":-38.12,"longitude":176.5,"PEI":3,"H_active":1,"VEI_Holoce":"5","hazard":"1","class":"NULL","risk":"1","field_14":null,"field_15":null}
{"_id":{"$oid":"5d9dec992ebe2da7d4dad027"},"VolcanoID":241060,"V_Name":"Reporoa","Country":"New Zealand","Region":"New Zealand to Fiji","Subregion":"New Zealand","latitude":-38.42,"longitude":176.33,"PEI":3,"H_active":0,"VEI_Holoce":"Unknown VEI","hazard":"NULL","class":"U-HR","risk":"NULL","field_14":null,"field_15":null}
{"_id":{"$oid":"5d9dec992ebe2da7d4dad028"},"VolcanoID":234002,"V_Name":"St. Paul","Country":"France","Region":"Middle East and Indian Ocean","Subregion":"Indian Ocean (southern)","latitude":-38.72,"longitude":77.53,"PEI":1,"H_active":1,"VEI_Holoce":"2","hazard":"NULL","class":"U-HHR","risk":"NULL","field_14":null,"field_15":null}
{"_id":{"$oid":"5d9dec992ebe2da7d4dad029"},"VolcanoID":233014,"V_Name":"Itasy Volcanic Field","Country":"Madagascar","Region":"Middle East and Indian Ocean","Subregion":"Indian Ocean (western)","latitude":-19,"longitude":46.77,"PEI":6,"H_active":0,"VEI_Holoce":"Unknown VEI","hazard":"NULL","class":"U-HR","risk":"NULL","field_14":null,"field_15":null}
{"_id":{"$oid":"5d9dec992ebe2da7d4dad02a"},"VolcanoID":241080,"V_Name":"Tongariro","Country":"New Zealand","Region":"New Zealand to Fiji","Subregion":"New Zealand","latitude":-39.13,"longitude":175.642,"PEI":2,"H_active":1,"VEI_Holoce":"5","hazard":"2","class":"NULL","risk":"1","field_14":null,"field_15":null}
{"_id":{"$oid":"5d9dec992ebe2da7d4dad02b"},"VolcanoID":241100,"V_Name":"Ruapehu","Country":"New Zealand","Region":"New Zealand to Fiji","Subregion":"New Zealand","latitude":-39.28,"longitude":175.57,"PEI":2,"H_active":1,"VEI_Holoce":"4","hazard":"2","class":"NULL","risk":"1","field_14":null,"field_15":null}
{"_id":{"$oid":"5d9dec992ebe2da7d4dad02c"},"VolcanoID":241061,"V_Name":"Maroa","Country":"New Zealand","Region":"New Zealand to Fiji","Subregion":"New Zealand","latitude":-38.42,"longitude":176.08,"PEI":2,"H_active":0,"VEI_Holoce":"Unknown VEI","hazard":"NULL","class":"U-HR","risk":"NULL","field_14":null,"field_15":null}
{"_id":{"$oid":"5d9dec992ebe2da7d4dad02d"},"VolcanoID":234030,"V_Name":"Est, Ile de l'","Country":"France","Region":"Middle East and Indian Ocean","Subregion":"Indian Ocean (southern)","latitude":-46.43,"longitude":52.2,"PEI":1,"H_active":0,"VEI_Holoce":"No confirmed eruptions","hazard":"NULL","class":"U-NHHR","risk":"NULL","field_14":null,"field_15":null}
{"_id":{"$oid":"5d9dec992ebe2da7d4dad02e"},"VolcanoID":234070,"V_Name":"Marion Island","Country":"South Africa","Region":"Middle East and Indian Ocean","Subregion":"Indian Ocean (southern)","latitude":-46.9,"longitude":37.75,"PEI":1,"H_active":1,"VEI_Holoce":"1","hazard":"NULL","class":"U-HHR","risk":"NULL","field_14":null,"field_15":null}
{"_id":{"$oid":"5d9dec992ebe2da7d4dad02f"},"VolcanoID":241020,"V_Name":"Auckland Field","Country":"New Zealand","Region":"New Zealand to Fiji","Subregion":"New Zealand","latitude":-36.9,"longitude":174.87,"PEI":7,"H_active":0,"VEI_Holoce":"Unknown VEI","hazard":"NULL","class":"U-HR","risk":"NULL","field_14":null,"field_15":null}
{"_id":{"$oid":"5d9dec992ebe2da7d4dad030"},"VolcanoID":241101,"V_Name":"Clark","Country":"New Zealand","Region":"New Zealand to Fiji","Subregion":"New Zealand","latitude":-36.446,"longitude":177.839,"PEI":1,"H_active":0,"VEI_Holoce":"No confirmed eruptions","hazard":"NULL","class":"U-NHHR","risk":"NULL","field_14":null,"field_15":null}
{"_id":{"$oid":"5d9dec992ebe2da7d4dad031"},"VolcanoID":241110,"V_Name":"Rumble V","Country":"New Zealand","Region":"New Zealand to Fiji","Subregion":"New Zealand","latitude":-36.142,"longitude":178.196,"PEI":1,"H_active":0,"VEI_Holoce":"No confirmed eruptions","hazard":"NULL","class":"U-NHHR","risk":"NULL","field_14":null,"field_15":null}
{"_id":{"$oid":"5d9dec992ebe2da7d4dad032"},"VolcanoID":241131,"V_Name":"Rumble II West","Country":"New Zealand","Region":"New Zealand to Fiji","Subregion":"New Zealand","latitude":-35.353,"longitude":178.527,"PEI":1,"H_active":0,"VEI_Holoce":"No confirmed eruptions","hazard":"NULL","class":"U-NHHR","risk":"NULL","field_14":null,"field_15":null}
{"_id":{"$oid":"5d9dec992ebe2da7d4dad033"},"VolcanoID":241102,"V_Name":"Tangaroa","Country":"New Zealand","Region":"New Zealand to Fiji","Subregion":"New Zealand","latitude":-36.321,"longitude":178.028,"PEI":1,"H_active":0,"VEI_Holoce":"No confirmed eruptions","hazard":"NULL","class":"U-NHHR","risk":"NULL","field_14":null,"field_15":null}
{"_id":{"$oid":"5d9dec992ebe2da7d4dad034"},"VolcanoID":242001,"V_Name":"Volcano W","Country":"New Zealand","Region":"New Zealand to Fiji","Subregion":"Kermadec Islands","latitude":-31.85,"longitude":-179.18,"PEI":1,"H_active":0,"VEI_Holoce":"No confirmed eruptions","hazard":"NULL","class":"U-NHHR","risk":"NULL","field_14":null,"field_15":null}
{"_id":{"$oid":"5d9dec992ebe2da7d4dad035"},"VolcanoID":241130,"V_Name":"Rumble III","Country":"New Zealand","Region":"New Zealand to Fiji","Subregion":"New Zealand","latitude":-35.745,"longitude":178.478,"PEI":1,"H_active":1,"VEI_Holoce":"0","hazard":"1","class":"NULL","risk":"1","field_14":null,"field_15":null}
{"_id":{"$oid":"5d9dec992ebe2da7d4dad036"},"VolcanoID":241120,"V_Name":"Rumble IV","Country":"New Zealand","Region":"New Zealand to Fiji","Subregion":"New Zealand","latitude":-36.13,"longitude":178.05,"PEI":1,"H_active":0,"VEI_Holoce":"No confirmed eruptions","hazard":"NULL","class":"U-NHHR","risk":"NULL","field_14":null,"field_15":null}
{"_id":{"$oid":"5d9dec992ebe2da7d4dad037"},"VolcanoID":243040,"V_Name":"Hunga Tonga-Hunga Ha'apai","Country":"Tonga","Region":"New Zealand to Fiji","Subregion":"Tonga Islands","latitude":-20.57,"longitude":-175.38,"PEI":2,"H_active":1,"VEI_Holoce":"2","hazard":"2","class":"NULL","risk":"1","field_14":null,"field_15":null}
{"_id":{"$oid":"5d9dec992ebe2da7d4dad038"},"VolcanoID":243060,"V_Name":"Tofua","Country":"Tonga","Region":"New Zealand to Fiji","Subregion":"Tonga Islands","latitude":-19.75,"longitude":-175.07,"PEI":2,"H_active":1,"VEI_Holoce":"2","hazard":"1","class":"NULL","risk":"1","field_14":null,"field_15":null}
{"_id":{"$oid":"5d9dec992ebe2da7d4dad039"},"VolcanoID":241140,"V_Name":"Healy","Country":"New Zealand","Region":"New Zealand to Fiji","Subregion":"New Zealand","latitude":-35.004,"longitude":178.973,"PEI":1,"H_active":0,"VEI_Holoce":"Unknown VEI","hazard":"NULL","class":"U-HR","risk":"NULL","field_14":null,"field_15":null}
{"_id":{"$oid":"5d9dec992ebe2da7d4dad03a"},"VolcanoID":243050,"V_Name":"Falcon Island","Country":"Tonga","Region":"New Zealand to Fiji","Subregion":"Tonga Islands","latitude":-20.32,"longitude":-175.42,"PEI":2,"H_active":1,"VEI_Holoce":"3","hazard":"1","class":"NULL","risk":"1","field_14":null,"field_15":null}
{"_id":{"$oid":"5d9dec992ebe2da7d4dad03b"},"VolcanoID":243070,"V_Name":"Metis Shoal","Country":"Tonga","Region":"New Zealand to Fiji","Subregion":"Tonga Islands","latitude":-19.18,"longitude":-174.87,"PEI":2,"H_active":1,"VEI_Holoce":"2","hazard":"1","class":"NULL","risk":"1","field_14":null,"field_15":null}
{"_id":{"$oid":"5d9dec992ebe2da7d4dad03c"},"VolcanoID":243080,"V_Name":"Home Reef","Country":"Tonga","Region":"New Zealand to Fiji","Subregion":"Tonga Islands","latitude":-18.992,"longitude":-174.775,"PEI":2,"H_active":1,"VEI_Holoce":"3","hazard":"NULL","class":"U-HHR","risk":"NULL","field_14":null,"field_15":null}
{"_id":{"$oid":"5d9dec992ebe2da7d4dad03d"},"VolcanoID":243100,"V_Name":"Fonualei","Country":"Tonga","Region":"New Zealand to Fiji","Subregion":"Tonga Islands","latitude":-18.02,"longitude":-174.325,"PEI":2,"H_active":1,"VEI_Holoce":"4","hazard":"2","class":"NULL","risk":"1","field_14":null,"field_15":null}
{"_id":{"$oid":"5d9dec992ebe2da7d4dad03e"},"VolcanoID":243061,"V_Name":"Kao","Country":"Tonga","Region":"New Zealand to Fiji","Subregion":"Tonga Islands","latitude":-19.67,"longitude":-175.03,"PEI":2,"H_active":0,"VEI_Holoce":"No confirmed eruptions","hazard":"NULL","class":"U-NHHR","risk":"NULL","field_14":null,"field_15":null}
{"_id":{"$oid":"5d9dec992ebe2da7d4dad03f"},"VolcanoID":243101,"V_Name":"Tafahi","Country":"Tonga","Region":"New Zealand to Fiji","Subregion":"Tonga Islands","latitude":-15.85,"longitude":-173.72,"PEI":2,"H_active":0,"VEI_Holoce":"No confirmed eruptions","hazard":"NULL","class":"U-NHHR","risk":"NULL","field_14":null,"field_15":null}
{"_id":{"$oid":"5d9dec992ebe2da7d4dad040"},"VolcanoID":243091,"V_Name":"Unnamed","Country":"Tonga","Region":"New Zealand to Fiji","Subregion":"Tonga Islands","latitude":-18.325,"longitude":-174.365,"PEI":2,"H_active":1,"VEI_Holoce":"2","hazard":"NULL","class":"U-HHR","risk":"NULL","field_14":null,"field_15":null}
{"_id":{"$oid":"5d9dec992ebe2da7d4dad041"},"VolcanoID":241150,"V_Name":"Brothers","Country":"New Zealand","Region":"New Zealand to Fiji","Subregion":"New Zealand","latitude":-34.875,"longitude":179.075,"PEI":1,"H_active":0,"VEI_Holoce":"No confirmed eruptions","hazard":"NULL","class":"U-NHHR","risk":"NULL","field_14":null,"field_15":null}
{"_id":{"$oid":"5d9dec992ebe2da7d4dad042"},"VolcanoID":242030,"V_Name":"Raoul Island","Country":"New Zealand","Region":"New Zealand to Fiji","Subregion":"Kermadec Islands","latitude":-29.27,"longitude":-177.92,"PEI":1,"H_active":1,"VEI_Holoce":"6","hazard":"3","class":"NULL","risk":"1","field_14":null,"field_15":null}
{"_id":{"$oid":"5d9dec992ebe2da7d4dad043"},"VolcanoID":243102,"V_Name":"Curacoa","Country":"Tonga","Region":"New Zealand to Fiji","Subregion":"Tonga Islands","latitude":-15.62,"longitude":-173.67,"PEI":2,"H_active":1,"VEI_Holoce":"3","hazard":"NULL","class":"U-HHR","risk":"NULL","field_14":null,"field_15":null}
{"_id":{"$oid":"5d9dec992ebe2da7d4dad044"},"VolcanoID":243090,"V_Name":"Late","Country":"Tonga","Region":"New Zealand to Fiji","Subregion":"Tonga Islands","latitude":-18.806,"longitude":-174.65,"PEI":2,"H_active":1,"VEI_Holoce":"2","hazard":"NULL","class":"U-HHR","risk":"NULL","field_14":null,"field_15":null}
{"_id":{"$oid":"5d9dec992ebe2da7d4dad045"},"VolcanoID":243130,"V_Name":"West Mata","Country":"Tonga","Region":"New Zealand to Fiji","Subregion":"Tonga Islands","latitude":-15.1,"longitude":-173.75,"PEI":2,"H_active":1,"VEI_Holoce":"0","hazard":"NULL","class":"U-HHR","risk":"NULL","field_14":null,"field_15":null}
{"_id":{"$oid":"5d9dec992ebe2da7d4dad046"},"VolcanoID":243110,"V_Name":"Niuafo'ou","Country":"Tonga","Region":"New Zealand to Fiji","Subregion":"Tonga Islands","latitude":-15.6,"longitude":-175.63,"PEI":2,"H_active":1,"VEI_Holoce":"4","hazard":"2","class":"NULL","risk":"1","field_14":null,"field_15":null}
{"_id":{"$oid":"5d9dec992ebe2da7d4dad047"},"VolcanoID":242010,"V_Name":"Curtis Island","Country":"New Zealand","Region":"New Zealand to Fiji","Subregion":"Kermadec Islands","latitude":-30.542,"longitude":-178.561,"PEI":1,"H_active":0,"VEI_Holoce":"No confirmed eruptions","hazard":"NULL","class":"U-NHHR","risk":"NULL","field_14":null,"field_15":null}
{"_id":{"$oid":"5d9dec992ebe2da7d4dad048"},"VolcanoID":243120,"V_Name":"Tafu-Maka","Country":"Tonga","Region":"New Zealand to Fiji","Subregion":"Tonga Islands","latitude":-15.37,"longitude":-174.23,"PEI":2,"H_active":1,"VEI_Holoce":"0","hazard":"NULL","class":"U-HHR","risk":"NULL","field_14":null,"field_15":null}
{"_id":{"$oid":"5d9dec992ebe2da7d4dad049"},"VolcanoID":244000,"V_Name":"Vailulu'u","Country":"United States","Region":"New Zealand to Fiji","Subregion":"Samoan and Wallis Islands","latitude":-14.215,"longitude":-169.058,"PEI":2,"H_active":1,"VEI_Holoce":"0","hazard":"NULL","class":"U-HHR","risk":"NULL","field_14":null,"field_15":null}
{"_id":{"$oid":"5d9dec992ebe2da7d4dad04a"},"VolcanoID":244020,"V_Name":"Tutuila","Country":"United States","Region":"New Zealand to Fiji","Subregion":"Samoan and Wallis Islands","latitude":-14.295,"longitude":-170.7,"PEI":5,"H_active":0,"VEI_Holoce":"No confirmed eruptions","hazard":"NULL","class":"U-NHHR","risk":"NULL","field_14":null,"field_15":null}
{"_id":{"$oid":"5d9dec992ebe2da7d4dad04b"},"VolcanoID":242021,"V_Name":"Macauley Island","Country":"New Zealand","Region":"New Zealand to Fiji","Subregion":"Kermadec Islands","latitude":-30.2,"longitude":-178.47,"PEI":1,"H_active":0,"VEI_Holoce":"6","hazard":"NULL","class":"U-HR","risk":"NULL","field_14":null,"field_15":null}
{"_id":{"$oid":"5d9dec992ebe2da7d4dad04c"},"VolcanoID":244001,"V_Name":"Ta'u","Country":"United States","Region":"New Zealand to Fiji","Subregion":"Samoan and Wallis Islands","latitude":-14.23,"longitude":-169.454,"PEI":2,"H_active":0,"VEI_Holoce":"No confirmed eruptions","hazard":"NULL","class":"U-NHHR","risk":"NULL","field_14":null,"field_15":null}
{"_id":{"$oid":"5d9dec992ebe2da7d4dad04d"},"VolcanoID":244010,"V_Name":"Ofu-Olosega","Country":"United States","Region":"New Zealand to Fiji","Subregion":"Samoan and Wallis Islands","latitude":-14.175,"longitude":-169.618,"PEI":2,"H_active":1,"VEI_Holoce":"2","hazard":"NULL","class":"U-HHR","risk":"NULL","field_14":null,"field_15":null}
{"_id":{"$oid":"5d9dec992ebe2da7d4dad04e"},"VolcanoID":244050,"V_Name":"Wallis Islands","Country":"France","Region":"New Zealand to Fiji","Subregion":"Samoan and Wallis Islands","latitude":-13.3,"longitude":-176.17,"PEI":4,"H_active":0,"VEI_Holoce":"No confirmed eruptions","hazard":"NULL","class":"U-NHHR","risk":"NULL","field_14":null,"field_15":null}
{"_id":{"$oid":"5d9dec992ebe2da7d4dad04f"},"VolcanoID":244030,"V_Name":"Upolu","Country":"Samoa","Region":"New Zealand to Fiji","Subregion":"Samoan and Wallis Islands","latitude":-13.935,"longitude":-171.72,"PEI":4,"H_active":0,"VEI_Holoce":"No confirmed eruptions","hazard":"NULL","class":"U-NHHR","risk":"NULL","field_14":null,"field_15":null}
{"_id":{"$oid":"5d9dec992ebe2da7d4dad050"},"VolcanoID":242005,"V_Name":"Havre Seamount","Country":"New Zealand","Region":"New Zealand to Fiji","Subregion":"Kermadec Islands","latitude":-31.11,"longitude":179.04,"PEI":1,"H_active":1,"VEI_Holoce":"Unknown VEI","hazard":"NULL","class":"U-HHR","risk":"NULL","field_14":null,"field_15":null}
{"_id":{"$oid":"5d9dec992ebe2da7d4dad051"},"VolcanoID":245010,"V_Name":"Taveuni","Country":"Fiji","Region":"New Zealand to Fiji","Subregion":"Fiji Islands","latitude":-16.82,"longitude":-179.97,"PEI":3,"H_active":1,"VEI_Holoce":"2","hazard":"1","class":"NULL","risk":"1","field_14":null,"field_15":null}
{"_id":{"$oid":"5d9dec992ebe2da7d4dad052"},"VolcanoID":243011,"V_Name":"Unnamed","Country":"Tonga","Region":"New Zealand to Fiji","Subregion":"Tonga Islands","latitude":-21.15,"longitude":-175.75,"PEI":2,"H_active":0,"VEI_Holoce":"No confirmed eruptions","hazard":"NULL","class":"U-NHHR","risk":"NULL","field_14":null,"field_15":null}
{"_id":{"$oid":"5d9dec992ebe2da7d4dad053"},"VolcanoID":242022,"V_Name":"Giggenbach","Country":"New Zealand","Region":"New Zealand to Fiji","Subregion":"Kermadec Islands","latitude":-30.036,"longitude":-178.712,"PEI":1,"H_active":0,"VEI_Holoce":"No confirmed eruptions","hazard":"NULL","class":"U-NHHR","risk":"NULL","field_14":null,"field_15":null}
{"_id":{"$oid":"5d9dec992ebe2da7d4dad054"},"VolcanoID":243001,"V_Name":"Unnamed","Country":"Undersea Features","Region":"New Zealand to Fiji","Subregion":"Tonga Islands","latitude":-24.8,"longitude":-177.02,"PEI":1,"H_active":0,"VEI_Holoce":"No confirmed eruptions","hazard":"NULL","class":"U-NHHR","risk":"NULL","field_14":null,"field_15":null}
{"_id":{"$oid":"5d9dec992ebe2da7d4dad055"},"VolcanoID":244040,"V_Name":"Savai'i","Country":"Samoa","Region":"New Zealand to Fiji","Subregion":"Samoan and Wallis Islands","latitude":-13.612,"longitude":-172.525,"PEI":2,"H_active":1,"VEI_Holoce":"2","hazard":"NULL","class":"U-HHR","risk":"NULL","field_14":null,"field_15":null}
{"_id":{"$oid":"5d9dec992ebe2da7d4dad056"},"VolcanoID":243140,"V_Name":"Niua Tahi","Country":"Tonga","Region":"New Zealand to Fiji","Subregion":"Tonga Islands","latitude":-15.42,"longitude":-174.02,"PEI":1,"H_active":0,"VEI_Holoce":"No confirmed eruptions","hazard":"NULL","class":"U-NHHR","risk":"NULL","field_14":null,"field_15":null}
{"_id":{"$oid":"5d9dec992ebe2da7d4dad057"},"VolcanoID":245020,"V_Name":"Koro","Country":"Fiji","Region":"New Zealand to Fiji","Subregion":"Fiji Islands","latitude":-17.32,"longitude":179.4,"PEI":2,"H_active":0,"VEI_Holoce":"No confirmed eruptions","hazard":"NULL","class":"U-NHHR","risk":"NULL","field_14":null,"field_15":null}
{"_id":{"$oid":"5d9dec992ebe2da7d4dad058"},